Airport Code;Airport Name;City Name;Country Name;Country Code;Latitude;Longitude;World Area Code;City Name geo_name_id;Country Name geo_name_id;coordinates
HNL;Honolulu International;Honolulu;United States;US;21.333333;-157.933333;67;5856195;6252001;21.333333, -157.933333
LBL;Municipal;Liberal;United States;US;37.05;-100.966667;67;5445820;6252001;37.05, -100.966667
BGR;Bangor International Airport;Bangor;United States;US;44.8;-68.816667;67;5244626;6252001;44.8, -68.816667
CWI;Clinton;Clinton;United States;US;41.833333;-90.35;67;5773001;6252001;41.833333, -90.35
EGP;Maverick Co;Eagle Pass;United States;US;28.866667;-100.533333;67;5520677;6252001;28.866667, -100.533333
SQL;San Carlos;San Carlos;United States;US;37.483333;-122.25;67;5391760;6252001;37.483333, -122.25
SXY;Sidney;Sidney;United States;US;42.316667;-75.4;67;5699552;6252001;42.316667, -75.4
ZSH;Bus Station;Santa Fe;United States;US;1.366667;-77.033333;67;5490263;6252001;1.366667, -77.033333
ZBP;Baltimore Rail;Baltimore;United States;US;4.666667;-74.516667;67;4505716;6252001;4.666667, -74.516667
BOW;Bartow;Bartow;United States;US;27.933333;-81.783333;67;4146723;6252001;27.933333, -81.783333
JBP;Commerce Bus. Plaza;Los Angeles;United States;US;33.986667;-118.159722;67;5368361;6252001;33.986667, -118.159722
CRO;Corcoran;Corcoran;United States;US;36.1;-119.55;67;5339539;6252001;36.1, -119.55
LAW;Municipal;Lawton;United States;US;34.566667;-98.416667;67;4998956;6252001;34.566667, -98.416667
ECA;Emmet County Airport;East Tawas;United States;US;44.266667;-83.483333;67;4991692;6252001;44.266667, -83.483333
PVD;T. F. Green Airport;Providence;United States;US;41.733333;-71.433333;67;5780020;6252001;41.733333, -71.433333
EDW;Edwards AFB;Edwards AFB;United States;US;34.9;-117.883333;67;\N;6252001;34.9, -117.883333
CMH;Port Columbus Intl;Columbus;United States;US;40.0;-82.883333;67;5645893;6252001;40.0, -82.883333
POY;Powell;Powell;United States;US;44.866667;-108.8;67;5835606;6252001;44.866667, -108.8
OMK;Municipal;Omak;United States;US;48.4;-119.533333;67;5805734;6252001;48.4, -119.533333
KEB;Nanwalek;Nanwalek;United States;US;59.366667;-151.916667;67;\N;6252001;59.366667, -151.916667
TEK;Tatitlek;Tatitlek;United States;US;41.633333;24.95;67;\N;6252001;41.633333, 24.95
GBD;Great Bend;Great Bend;United States;US;38.35;-98.866667;67;4272340;6252001;38.35, -98.866667
FYM;Municipal;Fayetteville;United States;US;35.15;-86.583333;67;5116968;6252001;35.15, -86.583333
KYK;Karluk;Karluk;United States;US;57.566667;-154.416667;67;\N;6252001;57.566667, -154.416667
KLW;Klawock;Klawock;United States;US;55.55;-133.1;67;\N;6252001;55.55, -133.1
LTH;Lathrop Wells;Lathrop Wells;United States;US;36.666667;-116.65;67;\N;6252001;36.666667, -116.65
DFW;Dallas/Fort Worth International;Dallas, TX;United States;US;32.896944;-97.038056;67;5722064;6252001;32.896944, -97.038056
DMN;Deming;Deming;United States;US;26.951667;108.578889;67;5464806;6252001;26.951667, 108.578889
BIX;Keesler AFB;Biloxi;United States;US;28.666667;-88.433333;67;4418478;6252001;28.666667, -88.433333
TOR;Municipal;Torrington;United States;US;51.8;-1.6;67;5841207;6252001;51.8, -1.6
RKH;Rock Hill;Rock Hill;United States;US;34.933333;-81.016667;67;5134115;6252001;34.933333, -81.016667
TNT;Dade Collier;Miami;United States;US;25.861944;-80.896944;67;5304640;6252001;25.861944, -80.896944
IKB;Wilkes County;Wilkesboro;United States;US;36.166667;-81.15;67;4499138;6252001;36.166667, -81.15
FEP;Albertus;Freeport;United States;US;42.266667;-89.583333;67;5190486;6252001;42.266667, -89.583333
FLE;Fort Lee AAF;Petersburg;United States;US;52.3;5.833333;67;5556338;6252001;52.3, 5.833333
JBS;Hacienda Bus.Park H/P;Pleasanton;United States;US;37.699722;-121.9;67;5383777;6252001;37.699722, -121.9
BBD;Curtis Field;Brady;United States;US;31.133333;-99.333333;67;4676032;6252001;31.133333, -99.333333
TBC;Tuba City;Tuba City;United States;US;13.466667;-14.2;67;5318279;6252001;13.466667, -14.2
JMS;Jamestown;Jamestown;United States;US;46.933333;-98.683333;67;5360382;6252001;46.933333, -98.683333
MCF;Mac Dill AFB;Tampa;United States;US;54.433333;23.65;67;4174757;6252001;54.433333, 23.65
PTB;Municipal;Petersburg;United States;US;37.183333;-77.516667;67;5556338;6252001;37.183333, -77.516667
EDK;El Dorado;El Dorado;United States;US;37.766667;-96.866667;67;4270863;6252001;37.766667, -96.866667
CSV;Memorial;Crossville;United States;US;35.95;-85.083333;67;4616470;6252001;35.95, -85.083333
GRE;Municipal;Greenville;United States;US;38.883333;-89.416667;67;5564488;6252001;38.883333, -89.416667
HOB;Lea County;Hobbs;United States;US;32.683333;-103.216667;67;5471578;6252001;32.683333, -103.216667
EYW;International;Key West;United States;US;24.55;-81.766667;67;4160812;6252001;24.55, -81.766667
MLT;Millinocket;Millinocket;United States;US;45.65;-68.7;67;4972220;6252001;45.65, -68.7
EMT;El Monte;El Monte;United States;US;34.1;-118.033333;67;5345743;6252001;34.1, -118.033333
JIO;Intl Heliport;Ontario;United States;US;-11.283333;-74.433333;67;5744166;6252001;-11.283333, -74.433333
LPS;Lopez Island;Lopez Island;United States;US;48.483333;-122.936111;67;\N;6252001;48.483333, -122.936111
CEV;Mettle Field;Connersville;United States;US;39.633333;-85.133333;67;4256085;6252001;39.633333, -85.133333
OAK;Oakland International Airport;Oakland;United States;US;37.716667;-122.216667;67;5378538;6252001;37.716667, -122.216667
CZF;Cape Romanzof;Cape Romanzof;United States;US;61.733333;-166.0;67;\N;6252001;61.733333, -166.0
CNK;Blosser Municipal;Concordia;United States;US;39.55;-97.65;67;5096867;6252001;39.55, -97.65
HNC;Hatteras;Hatteras;United States;US;35.216667;-75.686111;67;\N;6252001;35.216667, -75.686111
SOL;Solomon;Solomon;United States;US;64.583333;-164.3;67;4279540;6252001;64.583333, -164.3
AHT;Amchitka;Amchitka;United States;US;51.5;179.0;67;\N;6252001;51.5, 179.0
AUS;Austin-bergstrom International;Austin;United States;US;30.194444;-97.67;67;5016884;6252001;30.194444, -97.67
OXD;Miami University;Oxford;United States;US;45.733333;-63.866667;67;5130319;6252001;45.733333, -63.866667
RBY;Ruby;Ruby;United States;US;64.733333;-155.483333;67;\N;6252001;64.733333, -155.483333
WSF;Sarichef;Sarichef;United States;US;31.1;-1.383333;67;\N;6252001;31.1, -1.383333
HAX;Hatbox Field;Muskogee;United States;US;35.745833;-95.412778;1;4543338;6252001;35.745833, -95.412778
HTW;Lawrence County Airpark;Chesapeake/Huntington Wv;United States;US;42.2525;-82.494444;67;4801966;6252001;42.2525, -82.494444
GAI;Montgomery County;Gaithersburg;United States;US;39.168333;-77.166111;67;4355843;6252001;39.168333, -77.166111
SMF;Sacramento International;Sacramento, CA;United States;US;38.7;-121.616667;67;5389489;6252001;38.7, -121.616667
SKY;Griffing Sandusky;Sandusky;United States;US;41.433333;-82.7;67;5170691;6252001;41.433333, -82.7
HDA;Hidden Falls;Hidden Falls;United States;US;57.066667;-134.983333;67;\N;6252001;57.066667, -134.983333
GVT;Majors Field;Greenville;United States;US;33.133333;-96.116667;67;5564488;6252001;33.133333, -96.116667
GMV;Monument Valley;Monument Valley Gldngs;United States;US;-2.616667;152.016667;67;\N;6252001;-2.616667, 152.016667
PFC;Pacific City State;Pacific City, OH;United States;US;45.199722;-123.962222;67;5744635;6252001;45.199722, -123.962222
NBP;Battery Pk City/N. Cov;New York;United States;US;5.5;-70.483333;67;5128581;6252001;5.5, -70.483333
EFW;Municipal;Jefferson;United States;US;42.016667;-94.383333;67;5733532;6252001;42.016667, -94.383333
ZTD;Schenectady Rail;Schenectady;United States;US;50.35;21.383333;67;5136454;6252001;50.35, 21.383333
LUK;Cincinnati Municipal-Lunken Field;Cincinnati, OH;United States;US;39.103333;-84.418611;67;4508722;6252001;39.103333, -84.418611
CGF;Cuyahoga County;Cleveland;United States;US;41.5525;-81.483889;67;5248933;6252001;41.5525, -81.483889
SMD;Smith Field;Fort Wayne, IN;United States;US;41.143333;-85.152778;67;4920423;6252001;41.143333, -85.152778
STS;Sonoma County;Santa Rosa;United States;US;38.516667;-122.8;67;5490338;6252001;38.516667, -122.8
QWG;Wilgrove Air Park;Charlotte, NC;United States;US;35.213889;-80.67;67;4988584;6252001;35.213889, -80.67
LAS;Mc Carran Intl;Las Vegas;United States;US;36.083333;-115.166667;67;5506956;6252001;36.083333, -115.166667
LVM;Mission Field;Livingston;United States;US;45.666667;-110.566667;67;5663049;6252001;45.666667, -110.566667
RDU;Raleigh-durham International Airport;Raleigh/Durham, NC;United States;US;35.877778;-78.7875;67;4487042;6252001;35.877778, -78.7875
FFT;Capital City;Frankfort, KY;United States;US;38.198611;-84.906111;67;5117856;6252001;38.198611, -84.906111
SWD;Seward;Seward;United States;US;60.133333;-149.416667;67;5873776;6252001;60.133333, -149.416667
BDY;State;Bandon;United States;US;43.116667;-124.416667;67;5712417;6252001;43.116667, -124.416667
BNO;Burns;Burns;United States;US;43.583333;-118.95;67;5716833;6252001;43.583333, -118.95
BJI;Bemidji;Bemidji;United States;US;47.516667;-94.933333;67;5017822;6252001;47.516667, -94.933333
GLQ;Glennallen;Glennallen;United States;US;62.116667;-145.55;67;\N;6252001;62.116667, -145.55
GWS;Glenwood Springs;Glenwood Springs;United States;US;-32.6;27.55;67;5423092;6252001;-32.6, 27.55
TWF;Joslin Field - Magic Valley Regional;Twin Falls, ID;United States;US;42.481667;-114.487778;67;5610810;6252001;42.481667, -114.487778
PEQ;Pecos City;Pecos City;United States;US;31.4;-103.516667;67;\N;6252001;31.4, -103.516667
ENW;Kenosha Regional Airport;Kenosha;United States;US;42.583333;-87.916667;67;5258393;6252001;42.583333, -87.916667
SLB;Municipal;Storm Lake;United States;US;42.6;-95.233333;67;4877655;6252001;42.6, -95.233333
VDI;Municipal;Vidalia;United States;US;32.216667;-82.4;67;4344599;6252001;32.216667, -82.4
IKO;Nikolski AFS;Nikolski;United States;US;52.95;-168.866667;67;\N;6252001;52.95, -168.866667
VCV;Southern California Logistics;Victorville, CA;United States;US;34.5975;-117.383056;67;5406222;6252001;34.5975, -117.383056
TKL;Taku SPB;Taku Lodge;United States;US;59.783333;-1.25;67;\N;6252001;59.783333, -1.25
JRA;West 30th St Heliport;New York;United States;US;40.754444;-74.0075;67;5128581;6252001;40.754444, -74.0075
FLJ;Falls Bay;Falls Bay;United States;US;60.0325;-148.008333;67;\N;6252001;60.0325, -148.008333
HLC;Hill City;Hill City;United States;US;39.366667;-99.85;67;4272980;6252001;39.366667, -99.85
AIO;Municipal;Atlantic;United States;US;41.4;-95.016667;67;4847385;6252001;41.4, -95.016667
RBN;Fort Jefferson;Fort Jefferson;United States;US;19.833333;-72.5;67;\N;6252001;19.833333, -72.5
LIH;Lihue;Kauai Island;United States;US;21.983333;-159.35;67;\N;6252001;21.983333, -159.35
FRH;Municipal;French Lick;United States;US;38.55;-86.616667;67;4257770;6252001;38.55, -86.616667
OLH;Old Harbor SPB;Old Harbor;United States;US;57.2;-153.316667;67;\N;6252001;57.2, -153.316667
AND;Anderson;Anderson;United States;US;34.5;-82.716667;67;5558857;6252001;34.5, -82.716667
NRC;Aux Field;Crows Landing;United States;US;37.4;-121.066667;67;\N;6252001;37.4, -121.066667
BWG;Warren County;Bowling Green;United States;US;36.966667;-86.416667;67;5147968;6252001;36.966667, -86.416667
OKC;Will Rogers World Airport;Oklahoma City;United States;US;35.393056;-97.600833;67;4544349;6252001;35.393056, -97.600833
DWF;Wright AFB;Dayton;United States;US;46.233333;-83.333333;67;6545140;6252001;46.233333, -83.333333
AKI;Akiak;Akiak;United States;US;60.9;-161.233333;67;\N;6252001;60.9, -161.233333
CYS;Cheyenne;Cheyenne;United States;US;41.15;-104.8;67;5821086;6252001;41.15, -104.8
BET;Bethel Airport;Bethel;United States;US;60.783333;-161.833333;67;5880568;6252001;60.783333, -161.833333
BOS;Logan International;Boston;United States;US;42.363056;-71.0;67;4930956;6252001;42.363056, -71.0
OGD;Municipal;Ogden;United States;US;41.2;-112.016667;67;5779206;6252001;41.2, -112.016667
SRV;Stony River;Stony River;United States;US;61.783333;-156.583333;67;\N;6252001;61.783333, -156.583333
BTM;Bert Mooney Airport;Butte,;United States;US;45.954722;-112.4975;67;5858289;6252001;45.954722, -112.4975
DEC;Decatur Arpt;Decatur;United States;US;39.833333;-88.866667;67;4990524;6252001;39.833333, -88.866667
JNP;Heliport;Newport Beach;United States;US;33.6;-117.883333;67;5376890;6252001;33.6, -117.883333
GGW;International;Glasgow;United States;US;48.216667;-106.616667;67;5654320;6252001;48.216667, -106.616667
SLG;Smith Field;Siloam Springs;United States;US;36.183333;-94.533333;67;4131116;6252001;36.183333, -94.533333
CDR;Chadron;Chadron;United States;US;42.833333;-103.083333;67;5694163;6252001;42.833333, -103.083333
BGM;Greater Binghamton;Binghamton, NY;United States;US;42.208611;-75.979722;67;5109177;6252001;42.208611, -75.979722
MBY;Moberly;Moberly;United States;US;39.466667;-92.433333;67;4398730;6252001;39.466667, -92.433333
MHK;Municipal;Manhattan;United States;US;39.133333;-96.666667;67;5664535;6252001;39.133333, -96.666667
EOS;Neosho;Neosho;United States;US;36.866667;-94.366667;67;4400183;6252001;36.866667, -94.366667
ASQ;Austin;Austin;United States;US;39.5;-117.066667;67;5016884;6252001;39.5, -117.066667
GRN;Gordon;Gordon;United States;US;42.8;-102.2;67;5695713;6252001;42.8, -102.2
INR;Kincheloe AFB;Sault Ste Marie;United States;US;45.85;5.416667;67;\N;6252001;45.85, 5.416667
UMB;North Shore;Umnak Island;United States;US;53.366667;-167.9;67;\N;6252001;53.366667, -167.9
TWA;Twin Hills;Twin Hills;United States;US;46.266667;-1.85;67;\N;6252001;46.266667, -1.85
LAR;General Brees Field;Laramie;United States;US;41.316667;-105.666667;67;5830062;6252001;41.316667, -105.666667
RAC;Horlick;Racine;United States;US;42.757778;-87.820833;67;5268249;6252001;42.757778, -87.820833
PYM;Plymouth;Plymouth;United States;US;41.966667;-70.683333;67;5383872;6252001;41.966667, -70.683333
OSH;Wittman Field;Oshkosh;United States;US;43.983333;-88.55;67;5265838;6252001;43.983333, -88.55
JFN;Ashtabula;Jefferson;United States;US;41.733333;-80.766667;67;5733532;6252001;41.733333, -80.766667
ZXS;Exchangest Railway Svc;Buffalo;United States;US;42.878333;-78.875278;67;5819881;6252001;42.878333, -78.875278
TOC;Toccoa;Toccoa;United States;US;42.216667;13.9;67;4226722;6252001;42.216667, 13.9
BNA;Nashville International;Nashville, TN;United States;US;36.124444;-86.678056;67;5003243;6252001;36.124444, -86.678056
ILN;Clinton Field;Wilmington;United States;US;39.416667;-83.8;67;4955840;6252001;39.416667, -83.8
QNY;Marine Air Terminal;New York;United States;US;5.5;-70.483333;67;5128581;6252001;5.5, -70.483333
MMI;McMinn County;Athens;United States;US;35.45;-84.6;67;5244312;6252001;35.45, -84.6
TVI;Municipal;Thomasville;United States;US;51.566667;8.133333;67;4494942;6252001;51.566667, 8.133333
RTL;Spirit Lake;Spirit Lake;United States;US;43.416667;-95.1;67;5608388;6252001;43.416667, -95.1
AGN;Angoon;Angoon;United States;US;57.5;-134.583333;67;\N;6252001;57.5, -134.583333
AUO;Auburn-Opelika;Auburn;United States;US;32.616667;-85.433333;67;5785965;6252001;32.616667, -85.433333
BVY;Beverly Municiple Airport;Beverly;United States;US;42.516667;-70.833333;67;5095691;6252001;42.516667, -70.833333
ADS;Addison Airport;Dallas;United States;US;32.968611;-96.836389;67;5722064;6252001;32.968611, -96.836389
FWH;Fort Worth NAS Jrb/Carswell Field;Fort Worth, TX;United States;US;32.769167;-97.441667;67;4691930;6252001;32.769167, -97.441667
FLV;Sherman AAF;Fort Leavenworth;United States;US;19.833333;-72.5;67;\N;6252001;19.833333, -72.5
EVV;Evansville Regional Airport;Evansville, IN;United States;US;38.036944;-87.5325;67;5824810;6252001;38.036944, -87.5325
HST;AFB;Homestead;United States;US;25.483333;-80.483333;67;5194067;6252001;25.483333, -80.483333
PCE;Painter Creek;Painter Creek;United States;US;47.8;10.216667;67;\N;6252001;47.8, 10.216667
BLF;Princeton;Princeton;United States;US;37.3;-81.2;67;5268096;6252001;37.3, -81.2
RDM;Roberts Field;Redmond;United States;US;44.25;-121.15;67;5808079;6252001;44.25, -121.15
SUU;Travis AFB;Fairfield;United States;US;5.816667;-54.816667;67;5347335;6252001;5.816667, -54.816667
AIB;Anita Bay;Anita Bay;United States;US;56.233333;-132.383333;67;\N;6252001;56.233333, -132.383333
BHB;Bar Harbor;Bar Harbor;United States;US;44.45;-68.366667;67;4957320;6252001;44.45, -68.366667
BXA;George R Carr;Bogalusa;United States;US;30.783333;-89.866667;67;4317412;6252001;30.783333, -89.866667
IWD;Gogebic County;Ironwood;United States;US;46.533333;-90.133333;67;4997249;6252001;46.533333, -90.133333
KLN;Larsen SPB;Larsen Bay;United States;US;57.533333;-154.0;67;\N;6252001;57.533333, -154.0
AOO;Martinsburg;Martinsburg;United States;US;40.3;-78.316667;67;5200055;6252001;40.3, -78.316667
PVF;Placerville;Placerville;United States;US;38.716667;-120.8;67;5383559;6252001;38.716667, -120.8
SAA;Shively Field;Saratoga;United States;US;41.45;-106.8;67;5837593;6252001;41.45, -106.8
LMS;Winston County;Louisville;United States;US;33.15;-89.066667;67;5429522;6252001;33.15, -89.066667
AEL;Albert Lea;Albert Lea;United States;US;43.683333;-93.366667;67;5016024;6252001;43.683333, -93.366667
CVS;Cannon AFB;Clovis;United States;US;19.15;-72.55;67;5462393;6252001;19.15, -72.55
AXV;Neil Armstrong;Wapakoneta;United States;US;40.566667;-84.183333;67;5175670;6252001;40.566667, -84.183333
BLW;Bellows Field;Waimanalo;United States;US;21.35;-157.716667;67;5854532;6252001;21.35, -157.716667
HCA;Howard County;Big Spring;United States;US;32.3;-101.433333;67;5517061;6252001;32.3, -101.433333
JCI;New Century Aircenter Airport;Olathe, KS;United States;US;38.830833;-94.890278;67;5433349;6252001;38.830833, -94.890278
BFR;Virgil I Grissom Muni;Bedford;United States;US;38.85;-86.483333;67;5179630;6252001;38.85, -86.483333
SCJ;Smith Cove;Smith Cove;United States;US;55.4375;-132.341667;67;\N;6252001;55.4375, -132.341667
TLT;Tuluksak;Tuluksak;United States;US;37.966667;39.533333;67;\N;6252001;37.966667, 39.533333
LBT;Lumberton;Lumberton;United States;US;34.6;-79.066667;67;4708328;6252001;34.6, -79.066667
AIN;Wainwright;Wainwright;United States;US;70.633333;-160.033333;67;\N;6252001;70.633333, -160.033333
BIC;Big Creek;Big Creek;United States;US;57.666667;-157.583333;67;\N;6252001;57.666667, -157.583333
GDV;Dawson Community;Glendive;United States;US;47.133333;-104.683333;67;5654391;6252001;47.133333, -104.683333
LGF;Laguna AAF;Yuma;United States;US;-1.6;138.716667;67;5583657;6252001;-1.6, 138.716667
UGB;Ugashik Bay;Pilot Point;United States;US;57.433333;-157.75;67;4719021;6252001;57.433333, -157.75
CTW;Cottonwood;Cottonwood;United States;US;34.733333;-112.033333;67;5589704;6252001;34.733333, -112.033333
MXC;San Juan County;Monticello;United States;US;37.866667;-109.35;67;5543377;6252001;37.866667, -109.35
GOL;State;Gold Beach;United States;US;42.416667;-124.416667;67;5843997;6252001;42.416667, -124.416667
MLF;Milford;Milford;United States;US;38.433333;-113.016667;67;5543146;6252001;38.433333, -113.016667
KMY;Moser Bay;Moser Bay;United States;US;57.0;-154.166667;67;\N;6252001;57.0, -154.166667
FOK;Suffolk County;Westhampton;United States;US;40.833333;-72.616667;67;5144089;6252001;40.833333, -72.616667
KZH;Kizhuyak;Kizhuyak;United States;US;57.583333;-153.15;67;\N;6252001;57.583333, -153.15
ISP;Long Island Mac Arthur;Islip, NY;United States;US;40.795278;-73.100278;67;5122413;6252001;40.795278, -73.100278
ALM;Municipal;Alamogordo;United States;US;32.833333;-106.0;67;5454627;6252001;32.833333, -106.0
TTN;Trenton Mercer Airport;Trenton, NJ;United States;US;40.276667;-74.813333;67;5105496;6252001;40.276667, -74.813333
BMT;Beaumont Muni;Beaumont;United States;US;18.5;-73.95;67;5327098;6252001;18.5, -73.95
JAR;Jahrom;Jahrom;United States;US;34.133333;-118.016667;67;\N;6252001;34.133333, -118.016667
SBA;Municipal;Santa Barbara, CA;United States;US;33.426111;-119.840278;67;5392952;6252001;33.426111, -119.840278
JHY;Hyatt Regency H/P;Cambridge;United States;US;42.366667;-71.102778;67;5247533;6252001;42.366667, -71.102778
WRG;Wrangell SPB;Wrangell;United States;US;56.466667;-132.383333;67;5558586;6252001;56.466667, -132.383333
AIY;Bader Field;Atlantic City;United States;US;39.366667;-74.45;67;4500546;6252001;39.366667, -74.45
SEP;Clark Field;Stephenville;United States;US;32.216667;-98.183333;67;4734350;6252001;32.216667, -98.183333
MEO;Dare County Regional;Manteo;United States;US;35.911111;-75.7;67;4477893;6252001;35.911111, -75.7
EKX;Elizabethtown;Elizabethtown;United States;US;37.7;-85.866667;67;5188474;6252001;37.7, -85.866667
HIF;Hill Afb;Ogden;United States;US;41.123889;-111.973056;67;5779206;6252001;41.123889, -111.973056
TWE;Taylor;Taylor;United States;US;56.15;-1.666667;67;5316960;6252001;56.15, -1.666667
NXX;Willow Grove NAS;Willow Grove;United States;US;-38.083333;146.2;67;5219619;6252001;-38.083333, 146.2
DWN;Downtown Airpark;Oklahoma City;United States;US;35.449167;-97.533056;67;4544349;6252001;35.449167, -97.533056
FLX;Municipal;Fallon;United States;US;39.466667;-118.769444;67;5503914;6252001;39.466667, -118.769444
AUK;Alakanuk;Alakanuk;United States;US;62.683333;-164.633333;67;\N;6252001;62.683333, -164.633333
DRF;Drift River;Drift River;United States;US;60.583333;-152.15;67;\N;6252001;60.583333, -152.15
ITO;Hilo International;Hilo;United States;US;19.716667;-155.05;67;5855927;6252001;19.716667, -155.05
KCL;Lagoon;Chignik;United States;US;56.3;-158.533333;67;\N;6252001;56.3, -158.533333
TOI;Municipal;Troy;United States;US;54.912778;70.348056;67;5216183;6252001;54.912778, 70.348056
EDA;Edna Bay;Edna Bay;United States;US;55.95;-133.666667;67;\N;6252001;55.95, -133.666667
JDY;Heliport;Downey;United States;US;33.956389;-118.120556;67;5343858;6252001;33.956389, -118.120556
SKF;Kelly AFB;San Antonio;United States;US;6.233333;-76.733333;67;4726206;6252001;6.233333, -76.733333
OIC;Eaton;Norwich;United States;US;42.983333;-80.6;67;5129359;6252001;42.983333, -80.6
DLF;Laughlin Afb;Del Rio;United States;US;29.516666999999998;-100.0;67;5520076;6252001;29.516666999999998, -100.0
JMD;Market Centre H/P;Dallas;United States;US;7.716667;40.916667;67;5722064;6252001;7.716667, 40.916667
APF;Naples;Naples;United States;US;26.15;-81.766667;67;5778807;6252001;26.15, -81.766667
MQT;Sawyer International;Marquette;United States;US;46.533333;-87.566667;67;5000947;6252001;46.533333, -87.566667
WTL;Tuntutuliak;Tuntutuliak;United States;US;13.45;-15.8;67;\N;6252001;13.45, -15.8
HNH;Hoonah;Hoonah;United States;US;58.1;-135.433333;67;\N;6252001;58.1, -135.433333
MKG;Muskegon;Muskegon;United States;US;43.166667;-86.233333;67;5003132;6252001;43.166667, -86.233333
WHP;Whiteman;Los Angeles;United States;US;34.259167;-118.413333;67;5368361;6252001;34.259167, -118.413333
DBQ;Municipal;Dubuque;United States;US;42.4;-90.716667;67;4854529;6252001;42.4, -90.716667
KNW;New Stuyahok;New Stuyahok;United States;US;59.533333;-157.333333;67;\N;6252001;59.533333, -157.333333
OME;Nome;Nome;United States;US;64.516667;-165.433333;67;5870133;6252001;64.516667, -165.433333
MIA;Miami International Airport;Miami;United States;US;25.783333;-80.266667;67;5304640;6252001;25.783333, -80.266667
RTE;Marguerite Bay;Marguerite Bay;United States;US;55.7;-131.633333;67;\N;6252001;55.7, -131.633333
RPX;Roundup;Roundup;United States;US;46.433333;-108.533333;67;5674878;6252001;46.433333, -108.533333
SIK;Memorial;Sikeston;United States;US;36.883333;-89.566667;67;4408672;6252001;36.883333, -89.566667
FXY;Municipal;Forest City;United States;US;43.266667;-93.65;67;5189963;6252001;43.266667, -93.65
RIW;Riverton Regional;Riverton, WY;United States;US;43.064167;-108.459722;67;5836665;6252001;43.064167, -108.459722
AEX;Alexandria International;Alexandria, LA;United States;US;31.3275;-92.548611;67;5082573;6252001;31.3275, -92.548611
AAP;Andrau Airpark;Houston, TX;United States;US;29.723889;-95.588333;67;5864312;6252001;29.723889, -95.588333
FRD;Friday Harbor;Friday Harbor;United States;US;48.521944;-123.024444;67;5795104;6252001;48.521944, -123.024444
GDH;Golden Horn Lodge SPB;Golden Horn Lodge, Alaska;United States;US;59.746944;-158.874722;67;\N;6252001;59.746944, -158.874722
EFK;Newport;Newport;United States;US;44.883333;-72.233333;67;5804694;6252001;44.883333, -72.233333
CTY;Cross City;Cross City;United States;US;29.65;-83.116667;67;4152395;6252001;29.65, -83.116667
AGC;Allegheny County;Pittsburgh;United States;US;40.35;-79.933333;67;5206379;6252001;40.35, -79.933333
BDL;Bradley International;Windsor Locks, CT;United States;US;41.938889;-72.683333;67;4845926;6252001;41.938889, -72.683333
FKL;Chess-Lambertin;Franklin;United States;US;41.383333;-79.866667;67;5253710;6252001;41.383333, -79.866667
HUJ;Hugo;Hugo;United States;US;34.016667;-95.516667;67;5030884;6252001;34.016667, -95.516667
JEF;Memorial;Jefferson City, MO;United States;US;38.591111;-92.039444;67;4632959;6252001;38.591111, -92.039444
MWH;Grant County;Moses Lake;United States;US;47.095;-119.261389;67;5803990;6252001;47.095, -119.261389
PAE;Snohomish County;Everett;United States;US;47.919444;-122.283611;67;5793933;6252001;47.919444, -122.283611
TSP;Kern County;Tehachapi, CA;United States;US;35.135;-118.439167;67;5401297;6252001;35.135, -118.439167
LKK;Kulik Lake;Kulik Lake;United States;US;58.966667;-155.083333;67;\N;6252001;58.966667, -155.083333
HHI;Wheeler AFB;Wahiawa;United States;US;13.966667;-4.433333;67;5853992;6252001;13.966667, -4.433333
EKN;Elkins;Elkins;United States;US;38.883333;-79.85;67;4805033;6252001;38.883333, -79.85
APC;Napa County;Napa;United States;US;38.45;-122.216667;67;5376095;6252001;38.45, -122.216667
BDF;Rinkenberger;Bradford;United States;US;41.183333;-89.65;67;5221030;6252001;41.183333, -89.65
NKV;Nichen Cove;Nichen Cove, AK;United States;US;55.849722;-133.227778;1;\N;6252001;55.849722, -133.227778
OXR;Ventura;Ventura;United States;US;34.2;-119.2;67;5405878;6252001;34.2, -119.2
OBE;County;Okeechobee;United States;US;27.25;-80.833333;67;4166822;6252001;27.25, -80.833333
IND;Indianapolis International;Indianapolis, IN;United States;US;39.717222;-86.294722;67;4259418;6252001;39.717222, -86.294722
TRX;Memorial;Trenton;United States;US;44.1;-77.583333;67;5105496;6252001;44.1, -77.583333
KOZ;Ouzinkie SPB;Ouzinkie;United States;US;57.916667;-152.483333;67;\N;6252001;57.916667, -152.483333
SAG;Sagwon;Sagwon;United States;US;69.366667;-148.7;67;\N;6252001;69.366667, -148.7
CRS;Corsicana;Corsicana;United States;US;32.1;-96.466667;67;4683462;6252001;32.1, -96.466667
VLD;Regional;Valdosta;United States;US;30.783333;-83.283333;67;4228147;6252001;30.783333, -83.283333
CIR;Cairo;Cairo;United States;US;4.666667;-76.016667;67;5111056;6252001;4.666667, -76.016667
CRP;Corpus Christi International Airport;Corpus Christi, TX;United States;US;27.770278;-97.501111;67;4683416;6252001;27.770278, -97.501111
SIV;County;Sullivan;United States;US;39.1;-87.4;67;4980155;6252001;39.1, -87.4
FBY;Municipal;Fairbury;United States;US;40.133333;-97.183333;67;5067896;6252001;40.133333, -97.183333
PAK;Port Allen;Hanapepe;United States;US;21.916667;-159.583333;67;5855631;6252001;21.916667, -159.583333
RWL;Rawlins;Rawlins;United States;US;41.8;-107.2;67;5836068;6252001;41.8, -107.2
EKO;Elko Regional;Elko, NV;United States;US;40.825;-115.791667;67;5703670;6252001;40.825, -115.791667
FNK;Fin Creek;Fin Creek;United States;US;69.5;-147.583333;67;\N;6252001;69.5, -147.583333
PBF;Grider Field;Pine Bluff;United States;US;34.183333;-91.933333;67;4126226;6252001;34.183333, -91.933333
EDE;Municipal;Edenton;United States;US;36.066667;-76.65;67;4464897;6252001;36.066667, -76.65
PCU;Pearl River County;Picayune;United States;US;30.516666999999998;-89.705556;67;4440975;6252001;30.516666999999998, -89.705556
HWD;Air Terminal;Hayward;United States;US;37.666667;-122.083333;67;5355933;6252001;37.666667, -122.083333
JNU;Boundary Bay;Juneau;United States;US;58.35;-134.583333;67;5554072;6252001;58.35, -134.583333
CFT;Morenci;Clifton;United States;US;32.95;-109.2;67;5417258;6252001;32.95, -109.2
RSH;Russian SPB;Russian Mission;United States;US;61.783333;-161.333333;67;\N;6252001;61.783333, -161.333333
OPL;St Landry Parish;Opelousas;United States;US;30.55;-92.1;67;4336153;6252001;30.55, -92.1
FLU;Flushing;New York;United States;US;5.5;-70.483333;67;5128581;6252001;5.5, -70.483333
EWD;Wildman Lake;Wildman Lake;United States;US;-12.333333;131.933333;67;\N;6252001;-12.333333, 131.933333
MKT;Municipal;Mankato;United States;US;44.15;-93.983333;67;5036420;6252001;44.15, -93.983333
HDE;Brewster Field;Holdrege;United States;US;40.433333;-99.366667;67;5070216;6252001;40.433333, -99.366667
MLY;Manley Hot Springs;Manley Hot Springs;United States;US;65.0;-150.633333;67;\N;6252001;65.0, -150.633333
JAJ;Perimeter Mall;Atlanta;United States;US;9.716667;-82.983333;67;4883772;6252001;9.716667, -82.983333
WOO;Woodchopper;Woodchopper;United States;US;65.3;-143.483333;67;\N;6252001;65.3, -143.483333
JDM;Downtown Heliport;Miami;United States;US;10.016667;-73.65;67;5304640;6252001;10.016667, -73.65
WTR;White River;White River;United States;US;33.816667;-109.983333;67;\N;6252001;33.816667, -109.983333
BBC;Bay City;Bay City;United States;US;28.983333;-95.966667;67;5712837;6252001;28.983333, -95.966667
LPC;Lompoc Airport;Lompoc;United States;US;34.666667;-120.469444;67;5367788;6252001;34.666667, -120.469444
HAB;Marion County;Hamilton;United States;US;34.116667;-88.0;67;5655959;6252001;34.116667, -88.0
MTO;Coles County Memorial;Mattoon;United States;US;39.483333;-88.283333;67;4244099;6252001;39.483333, -88.283333
WPO;North Fork Valley;Paonia;United States;US;38.866667;-107.6;67;5550409;6252001;38.866667, -107.6
PTL;Port Armstrong;Port Armstrong;United States;US;56.297222;-134.6625;67;\N;6252001;56.297222, -134.6625
KKU;Ekuk;Ekuk;United States;US;58.816667;-158.55;67;\N;6252001;58.816667, -158.55
HLB;Hillenbrand;Batesville;United States;US;39.3;-85.216667;67;4672600;6252001;39.3, -85.216667
UIL;Quillayute State;Quillayute;United States;US;47.95;-124.566667;67;\N;6252001;47.95, -124.566667
DRI;Beauregard Parish;De Ridder;United States;US;53.2;5.45;67;\N;6252001;53.2, 5.45
KWN;Kwinhagak;Quinhagak;United States;US;59.75;-161.916667;67;\N;6252001;59.75, -161.916667
OFK;Stefan Field;Norfolk;United States;US;41.983333;-97.433333;67;5128862;6252001;41.983333, -97.433333
PNN;Princeton;Princeton;United States;US;45.202778;-67.566667;67;5268096;6252001;45.202778, -67.566667
GVW;Richards-Gebaur;Grandview;United States;US;38.883333;-94.533333;67;5795969;6252001;38.883333, -94.533333
OSB;Osage Beach;Osage Beach;United States;US;38.15;-92.616667;67;4402040;6252001;38.15, -92.616667
FMH;Otis AFB;Falmouth;United States;US;41.566667;-70.633333;67;4963985;6252001;41.566667, -70.633333
PUL;Poulsbo;Poulsbo;United States;US;47.733333;-122.65;67;5807337;6252001;47.733333, -122.65
PPF;Tri-City;Parsons;United States;US;37.333333;-95.5;67;4817695;6252001;37.333333, -95.5
BFT;County;Beaufort;United States;US;32.416667;-80.633333;67;4570284;6252001;32.416667, -80.633333
MSN;Dane County Regional;Madison;United States;US;43.139722;-89.3375;67;5261457;6252001;43.139722, -89.3375
SXP;Sheldon SPB;Sheldon Point;United States;US;62.533333;-164.833333;67;\N;6252001;62.533333, -164.833333
HGT;Hunter AAF;Jolon;United States;US;-7.3;157.033333;67;\N;6252001;-7.3, 157.033333
AKK;Akhiok SPB;Akhiok;United States;US;56.95;-154.166667;67;\N;6252001;56.95, -154.166667
LOL;Derby Field;Lovelock;United States;US;40.058333;-118.566667;67;5705957;6252001;40.058333, -118.566667
ECG;Elizabeth City;Elizabeth City, NC;United States;US;36.260556;-76.174444;67;4465088;6252001;36.260556, -76.174444
VQQ;Cecil Field;Jacksonville;United States;US;30.218611;-81.876667;67;5733409;6252001;30.218611, -81.876667
FAF;Felker AAF;Fort Eustis;United States;US;19.833333;-72.5;67;\N;6252001;19.833333, -72.5
OBU;Kobuk/Wien;Kobuk;United States;US;66.933333;-156.866667;67;\N;6252001;66.933333, -156.866667
CDV;Mudhole Smith;Cordova;United States;US;60.483333;-145.483333;67;5859888;6252001;60.483333, -145.483333
MKO;Davis Field;Muskogee;United States;US;35.666667;-95.366667;67;4543338;6252001;35.666667, -95.366667
MGE;Dobbins Afb;Marietta;United States;US;33.912222;-84.515278;67;5802418;6252001;33.912222, -84.515278
LUF;Luke Afb;Phoenix;United States;US;6.466667;-57.65;67;5745656;6252001;6.466667, -57.65
PHP;Philip;Philip;United States;US;44.033333;-101.65;67;\N;6252001;44.033333, -101.65
DNE;Dallas North Airport;Dallas;United States;US;7.716667;40.916667;67;5722064;6252001;7.716667, 40.916667
MCO;Orlando International;Orlando;United States;US;28.429444;-81.308889;67;4167147;6252001;28.429444, -81.308889
ALB;Albany International;Albany;United States;US;42.733333;-73.8;67;5710756;6252001;42.733333, -73.8
BGQ;Big Lake;Big Lake;United States;US;61.533333;-149.816667;67;5880661;6252001;61.533333, -149.816667
CKB;Benedum;Clarksburg;United States;US;39.3;-80.233333;67;4802316;6252001;39.3, -80.233333
LSF;Lawson Aaf;Columbus;United States;US;32.337222;-84.991389;67;5645893;6252001;32.337222, -84.991389
MFI;Municipal;Marshfield;United States;US;44.6375;-90.188889;67;5261969;6252001;44.6375, -90.188889
CID;Cedar Rapids;Cedar Rapids;United States;US;41.884722;-91.710833;67;4850751;6252001;41.884722, -91.710833
MEV;Douglas County;Minden;United States;US;39.0;-119.75;67;5508379;6252001;39.0, -119.75
CCA;Chaffee AFB;Fort Chaffee;United States;US;19.833333;-72.5;67;\N;6252001;19.833333, -72.5
DEH;Municipal;Decorah;United States;US;43.316667;-91.833333;67;4853608;6252001;43.316667, -91.833333
NQI;NAS;Kingsville;United States;US;51.366667;-0.283333;67;4703384;6252001;51.366667, -0.283333
MIC;Crystal;Minneapolis;United States;US;45.061944;-93.353889;67;5037649;6252001;45.061944, -93.353889
KCK;Fairfax Municipal;Kansas City;United States;US;39.116667;-94.65;67;4393217;6252001;39.116667, -94.65
PXL;Polacca;Polacca;United States;US;35.833333;-110.383333;67;\N;6252001;35.833333, -110.383333
BRY;Samuels Field;Bardstown, KY;United States;US;37.816667;-85.466667;67;4283133;6252001;37.816667, -85.466667
ABL;Ambler;Ambler;United States;US;67.1;-157.816667;67;5178225;6252001;67.1, -157.816667
BKC;Buckland;Buckland;United States;US;65.983333;-161.166667;67;4931627;6252001;65.983333, -161.166667
MTX;Metro Field;Fairbanks;United States;US;64.8;-147.75;67;5861897;6252001;64.8, -147.75
APV;Apple Valley;Apple Valley;United States;US;34.575278;-117.186111;67;5324363;6252001;34.575278, -117.186111
GST;Gustavus Arpt;Gustavus;United States;US;58.416667;-135.7;67;\N;6252001;58.416667, -135.7
FMN;Municipal;Farmington;United States;US;36.75;-108.233333;67;5774662;6252001;36.75, -108.233333
PNS;Regional;Pensacola;United States;US;30.466667;-87.183333;67;4168228;6252001;30.466667, -87.183333
SVC;Grant County;Silver City;United States;US;32.633333;-108.166667;67;5491487;6252001;32.633333, -108.166667
HUT;Hutchinson;Hutchinson;United States;US;38.066667;-97.866667;67;5030977;6252001;38.066667, -97.866667
BUR;Bob Hope;Burbank;United States;US;34.2;-118.35;67;5788497;6252001;34.2, -118.35
GON;New London;New London;United States;US;41.333333;-72.05;67;5264455;6252001;41.333333, -72.05
WRL;Worland;Worland, WY;United States;US;43.965833;-107.884167;67;5843495;6252001;43.965833, -107.884167
GWV;Glendale;Glendale;United States;US;-17.360556;31.059722;67;5423075;6252001;-17.360556, 31.059722
SIY;Siskiyou County;Montague;United States;US;41.781389;-122.466389;67;5568152;6252001;41.781389, -122.466389
PLK;M Graham Clark;Branson/point Lookout;United States;US;36.616667;-93.216667;67;4378219;6252001;36.616667, -93.216667
MXO;Municipal;Monticello;United States;US;40.65;15.016667;67;5543377;6252001;40.65, 15.016667
SGF;Springfield-Branson Rg;Springfield;United States;US;37.25;-93.383333;67;5754005;6252001;37.25, -93.383333
MYV;Yuba County;Marysville;United States;US;39.1;-121.566667;67;5802570;6252001;39.1, -121.566667
BIL;Billings;Billings;United States;US;45.8;-108.533333;67;5640350;6252001;45.8, -108.533333
CZN;Chisana Field;Chisana;United States;US;62.083333;-142.05;67;\N;6252001;62.083333, -142.05
DLL;Dillon;Dillon;United States;US;34.416667;-79.366667;67;5648657;6252001;34.416667, -79.366667
ANV;Anvik;Anvik;United States;US;62.65;-160.216667;67;\N;6252001;62.65, -160.216667
MRB;Eastern Wv Regional Airport/Shepherd Field;Martinsburg;United States;US;39.401667;-77.984444;67;5200055;6252001;39.401667, -77.984444
ROA;Roanoke Regional Airport;Roanoke;United States;US;37.316667;-79.983333;67;4925483;6252001;37.316667, -79.983333
SFO;San Francisco International;San Francisco, CA;United States;US;37.618889;-122.375;67;5391959;6252001;37.618889, -122.375
INL;Falls Intl;International Falls;United States;US;48.566667;-93.4;67;5031404;6252001;48.566667, -93.4
ALN;Alton;Alton;United States;US;38.891667;-90.172222;67;5082602;6252001;38.891667, -90.172222
ESD;Orcas Island;Eastsound;United States;US;48.716667;-122.816667;67;\N;6252001;48.716667, -122.816667
GRB;Austin-straubel Field;Green Bay;United States;US;44.483333;-88.133333;67;5254962;6252001;44.483333, -88.133333
NJK;El Centro NAF;El Centro, CA;United States;US;32.829167;-115.671667;67;5345609;6252001;32.829167, -115.671667
SEE;Gillespie Field;San Diego;United States;US;32.550278;-116.916389;67;5391811;6252001;32.550278, -116.916389
MCK;Mccook;Mccook;United States;US;40.2;-100.583333;67;5697383;6252001;40.2, -100.583333
LSE;Municipal;La Crosse;United States;US;43.883333;-91.25;67;5258957;6252001;43.883333, -91.25
MPZ;Municipal;Mt Pleasant;United States;US;40.966667;-91.55;67;\N;6252001;40.966667, -91.55
EAU;Chippewa Valley Regional Airport;Eau Claire, WI;United States;US;44.865833;-91.484167;67;5251436;6252001;44.865833, -91.484167
OGG;Kahului;Maui, HI;United States;US;20.898611;-156.430556;67;\N;6252001;20.898611, -156.430556
OTZ;Kotzebue;Kotzebue;United States;US;66.866667;-162.633333;67;5866726;6252001;66.866667, -162.633333
CBF;Municipal;Council Bluffs;United States;US;41.266667;-95.866667;67;4852832;6252001;41.266667, -95.866667
IDI;ndiana County Airport;Indiana, PA;United States;US;40.632222;-79.105556;67;5194868;6252001;40.632222, -79.105556
SUS;Spirit Of St Louis;St Louis;United States;US;38.662222;-90.651944;67;\N;6252001;38.662222, -90.651944
BKE;Baker;Baker;United States;US;44.833333;-117.816667;67;5638252;6252001;44.833333, -117.816667
BTV;Burlington International;Burlington;United States;US;44.471944;-73.153333;67;5788539;6252001;44.471944, -73.153333
AHH;Municipal;Amery;United States;US;45.283333;-92.366667;67;5243872;6252001;45.283333, -92.366667
PRB;Paso Robles;Paso Robles;United States;US;35.666667;-120.633333;67;5381438;6252001;35.666667, -120.633333
ASX;Ashland;Ashland;United States;US;46.548611;-90.918889;67;5711789;6252001;46.548611, -90.918889
HSV;Huntsville International - Carl T. Jones Field;Huntsville, AL;United States;US;34.637222;-86.775;67;4699540;6252001;34.637222, -86.775
SAT;San Antonio International;San Antonio;United States;US;29.533333;-98.466667;67;4726206;6252001;29.533333, -98.466667
TKJ;Tok;Tok;United States;US;53.333333;6.35;67;5876363;6252001;53.333333, 6.35
SSF;Stinson Municipal;San Antonio;United States;US;6.233333;-76.733333;67;4726206;6252001;6.233333, -76.733333
DRT;International;Del Rio;United States;US;29.366667;-100.916667;67;5520076;6252001;29.366667, -100.916667
CGX;Merrill C Meigs;Chicago;United States;US;41.858889;-87.608333;67;4887398;6252001;41.858889, -87.608333
BAR;Baker Aaf;Baker Island;United States;US;0.216667;-176.516667;67;\N;6252001;0.216667, -176.516667
CEW;Bob Sikes;Crestview;United States;US;30.783333;-86.516667;67;4152311;6252001;30.783333, -86.516667
ZME;Metropark Rail;Newark;United States;US;40.919444;74.169444;67;5376803;6252001;40.919444, 74.169444
TOG;Togiak Village;Togiak Village;United States;US;-0.333333;122.0;67;\N;6252001;-0.333333, 122.0
ANC;Ted Stevens Anchorage International Airport;Anchorage;United States;US;61.174444;-149.996389;67;5879400;6252001;61.174444, -149.996389
KSR;Federal No 1;Sandy River;United States;US;51.0;-96.383333;67;\N;6252001;51.0, -96.383333
LAL;Municipal;Lakeland;United States;US;28.083333;-81.95;67;5123872;6252001;28.083333, -81.95
AXB;Alexandria Bay;Alexandria Bay;United States;US;44.2525;-75.901389;67;5106950;6252001;44.2525, -75.901389
BFG;Bullfrog Basin;Bullfrog Basin;United States;US;37.55;-110.708333;67;\N;6252001;37.55, -110.708333
CJN;Gillespie Field;El Cajon;United States;US;32.826111;-116.9725;67;5345529;6252001;32.826111, -116.9725
WDY;Kodiak Fss;Kodiak;United States;US;56.866667;-1.25;67;5866583;6252001;56.866667, -1.25
SJN;St Johns;St Johns;United States;US;34.518889;-109.3775;67;\N;6252001;34.518889, -109.3775
HCB;Shoal Cove;Shoal Cove;United States;US;55.458333;-131.283333;67;\N;6252001;55.458333, -131.283333
SUD;Stroud;Stroud;United States;US;35.733333;-96.65;67;4552361;6252001;35.733333, -96.65
OCH;A L Mangham Jr. Regional;Nacogdoches, TX;United States;US;31.6;-94.65;67;4713735;6252001;31.6, -94.65
MGJ;Orange County;Montgomery;United States;US;41.51;-74.264722;67;5201752;6252001;41.51, -74.264722
SMK;St Michael;St Michael;United States;US;63.483333;-162.016667;67;\N;6252001;63.483333, -162.016667
AVL;Asheville Regional Airport;Fletcher;United States;US;35.436111;-82.541667;67;4536996;6252001;35.436111, -82.541667
IVH;Ivishak;Ivishak;United States;US;69.4;-148.25;67;\N;6252001;69.4, -148.25
PNU;Panguitch;Panguitch;United States;US;37.833333;-112.383333;67;5544525;6252001;37.833333, -112.383333
CFV;Municipal;Coffeyville;United States;US;17.533333;-88.166667;67;4269789;6252001;17.533333, -88.166667
GAG;Gage;Gage;United States;US;36.316667;-99.75;67;\N;6252001;36.316667, -99.75
MSP;Minneapolis - St. Paul Intl;Minneapolis;United States;US;44.883333;-93.216944;67;5037649;6252001;44.883333, -93.216944
WSX;Westsound;Westsound;United States;US;48.666667;-122.883333;67;\N;6252001;48.666667, -122.883333
MMU;Municipal;Morristown;United States;US;40.8;-74.416667;67;5238755;6252001;40.8, -74.416667
RDG;Municipal/Spaatz Fld;Reading;United States;US;40.383333;-75.966667;67;5207728;6252001;40.383333, -75.966667
AFN;Municipal;Jaffrey;United States;US;42.8;-72.0;67;5088061;6252001;42.8, -72.0
KPK;Parks SPB;Parks;United States;US;57.416667;-155.9;67;5308164;6252001;57.416667, -155.9
MQI;Quincy;Quincy;United States;US;42.25;-71.0;67;5807713;6252001;42.25, -71.0
DSM;Des Moines International;Des Moines, IA;United States;US;41.533889;-93.663056;67;5792244;6252001;41.533889, -93.663056
KPT;Jackpot;Jackpot;United States;US;41.966667;-114.666667;67;\N;6252001;41.966667, -114.666667
MHE;Municipal;Mitchell;United States;US;43.766667;-98.033333;67;5697633;6252001;43.766667, -98.033333
RAL;Riverside Municipal;Riverside;United States;US;33.95;-117.433333;67;5387877;6252001;33.95, -117.433333
ISO;Stallings Field;Kinston;United States;US;35.333333;-77.616667;67;4474436;6252001;35.333333, -77.616667
AKC;Fulton International;Akron/Canton;United States;US;-26.8;23.75;67;5574199;6252001;-26.8, 23.75
IMM;Immokalee;Immokalee;United States;US;26.416667;-81.416667;67;4159553;6252001;26.416667, -81.416667
CNH;Municipal;Claremont;United States;US;43.366667;-72.366667;67;5337696;6252001;43.366667, -72.366667
RLA;National;Rolla;United States;US;38.133333;-91.783333;67;5061159;6252001;38.133333, -91.783333
BXK;Buckeye Municipal;Buckeye;United States;US;33.366667;-112.583333;67;5287262;6252001;33.366667, -112.583333
CFK;Chefornak;Chefornak, AK;United States;US;60.149167;-164.285556;67;\N;6252001;60.149167, -164.285556
COS;Colorado Springs;Colorado Springs;United States;US;38.816667;-104.716667;67;5417598;6252001;38.816667, -104.716667
FOD;Fort Dodge Regional;Fort Dodge, IA;United States;US;42.551111;-94.191944;67;4857486;6252001;42.551111, -94.191944
MPV;Edward F Knapp State;Montpelier, VT;United States;US;44.203611;-72.562222;67;5601299;6252001;44.203611, -72.562222
BIF;Biggs Aaf;El Paso;United States;US;31.849444;-106.38;67;5520993;6252001;31.849444, -106.38
STJ;Rosecrans Memorial;St Joseph;United States;US;39.766667;-94.916667;67;\N;6252001;39.766667, -94.916667
TLA;Teller;Teller;United States;US;65.240278;-166.339444;67;\N;6252001;65.240278, -166.339444
ADR;Andrews;Andrews;United States;US;33.45;-79.566667;67;5516288;6252001;33.45, -79.566667
GUF;Edwards;Gulf Shores;United States;US;30.289722;-87.671667;67;4065552;6252001;30.289722, -87.671667
GUY;Guymon;Guymon;United States;US;36.683333;-101.483333;67;5515743;6252001;36.683333, -101.483333
EMK;Emmonak;Emmonak;United States;US;62.766667;-164.5;67;\N;6252001;62.766667, -164.5
FRP;Fresh Water Bay;Fresh Water Bay;United States;US;57.845833;-135.025;67;\N;6252001;57.845833, -135.025
BLD;Boulder City;Boulder City;United States;US;8.734444;-9.798611;67;5500539;6252001;8.734444, -9.798611
HFF;Mackall AAF;Hoffman;United States;US;-40.2;-72.166667;67;\N;6252001;-40.2, -72.166667
ZTE;Rochester NY Rail;Rochester;United States;US;49.916667;-0.966666999999999;67;5808524;6252001;49.916667, -0.966666999999999
BRL;Burlington;Burlington;United States;US;40.783333;-91.116667;67;5788539;6252001;40.783333, -91.116667
CRW;Yeager;Charleston;United States;US;38.366667;-81.6;67;4960682;6252001;38.366667, -81.6
UIZ;Berz-Macomb;Utica;United States;US;37.066667;10.066667;67;5174913;6252001;37.066667, 10.066667
BED;Hanscom Field;Bedford/Hanscom;United States;US;42.466667;-71.283333;67;5179630;6252001;42.466667, -71.283333
SZN;Santa Cruz Island;Santa Barbara;United States;US;-0.883332999999999;-72.5;67;5392952;6252001;-0.883332999999999, -72.5
HTO;East Hampton;East Hampton;United States;US;40.966667;-72.233333;67;5115871;6252001;40.966667, -72.233333
HAE;Havasupai;Havasupai;United States;US;36.230556;-112.669444;67;\N;6252001;36.230556, -112.669444
MAF;Midland International;Midland;United States;US;31.9425;-102.201944;67;5803357;6252001;31.9425, -102.201944
BEH;Ross Field;Benton Harbor;United States;US;42.133333;-86.433333;67;4985711;6252001;42.133333, -86.433333
BUF;Buffalo Niagara International;Buffalo, NY;United States;US;42.940556;-78.732222;67;5819881;6252001;42.940556, -78.732222
NUQ;Moffett Field;Mountain View;United States;US;37.383333;-122.066667;67;5851253;6252001;37.383333, -122.066667
QMV;Montvale;Montvale;United States;US;43.866667;1.6;67;5101361;6252001;43.866667, 1.6
ESP;Birchwood-Pocono;East Stroudsburg;United States;US;41.0;-75.183333;67;5188075;6252001;41.0, -75.183333
HFD;Brainard;Hartford;United States;US;41.766667;-72.683333;67;5255628;6252001;41.766667, -72.683333
OWK;Central Maine Airport of Norridgewock;Norridgewock;United States;US;44.716667;-69.8;67;4973430;6252001;44.716667, -69.8
EWK;City-County;Newton;United States;US;38.05;-97.35;67;5101848;6252001;38.05, -97.35
CKE;Clear Lake;Clear Lake;United States;US;39.033333;-122.833333;67;5790270;6252001;39.033333, -122.833333
HSB;Raleigh;Harrisburg;United States;US;37.733333;-88.55;67;5730389;6252001;37.733333, -88.55
MMT;Mc Entire ANG Base;Columbia;United States;US;-10.75;-67.866667;67;5338800;6252001;-10.75, -67.866667
SVA;Savoonga;Savoonga;United States;US;62.7;-170.466667;67;\N;6252001;62.7, -170.466667
SPI;Capital;Springfield;United States;US;39.85;-89.683333;67;5754005;6252001;39.85, -89.683333
LXN;Lexington;Lexington;United States;US;40.783333;-99.75;67;5160635;6252001;40.783333, -99.75
MPR;Mcpherson;Mcpherson;United States;US;38.35;-97.683333;67;4275261;6252001;38.35, -97.683333
MDF;Medford;Medford;United States;US;45.15;-90.333333;67;5740099;6252001;45.15, -90.333333
TTO;Municipal;Britton;United States;US;45.8;-97.75;67;5226523;6252001;45.8, -97.75
EKA;Murray Field;Eureka, CA;United States;US;40.803333;-124.112778;67;5651208;6252001;40.803333, -124.112778
TAL;Ralph Calhoun;Tanana;United States;US;-9.266667;161.083333;67;\N;6252001;-9.266667, 161.083333
DLO;Dolomi;Dolomi;United States;US;55.133333;-132.051389;67;\N;6252001;55.133333, -132.051389
CMY;Fort Mccoy;Sparta;United States;US;43.95;-90.783333;67;5273927;6252001;43.95, -90.783333
LEM;Lemmon;Lemmon;United States;US;45.916667;-102.1;67;5766453;6252001;45.916667, -102.1
JID;City Of Industry H/P;Los Angeles;United States;US;34.027222;-117.958333;67;5368361;6252001;34.027222, -117.958333
FPY;Perry-Foley;Perry;United States;US;30.116667;-83.583333;67;5779613;6252001;30.116667, -83.583333
COU;Columbia Regional;Columbia;United States;US;38.95;-92.333333;67;5338800;6252001;38.95, -92.333333
GGE;Georgetown;Georgetown;United States;US;33.316667;-79.316667;67;5422889;6252001;33.316667, -79.316667
RRT;Warroad;Warroad;United States;US;-28.05;117.533333;67;5051893;6252001;-28.05, 117.533333
BRW;Wiley Post/W.Rogers M;Barrow;United States;US;71.333333;-156.65;67;5880054;6252001;71.333333, -156.65
CKA;Kegelman Af;Cherokee;United States;US;26.283333;-77.033333;67;4851247;6252001;26.283333, -77.033333
PFN;Bay County;Panama City;United States;US;30.216667;-85.683333;67;4167694;6252001;30.216667, -85.683333
CLR;Calipatria;Calipatria;United States;US;33.133333;-115.516667;67;5332929;6252001;33.133333, -115.516667
MCI;Kansas City International Airport;Kansas City;United States;US;39.291667;-94.730556;67;4393217;6252001;39.291667, -94.730556
MUI;Muir AAF;Fort Indiantown;United States;US;19.833333;-72.5;67;\N;6252001;19.833333, -72.5
WTC;World Trade Center;New York;United States;US;40.666667;-74.016667;67;5128581;6252001;40.666667, -74.016667
AET;Allakaket;Allakaket;United States;US;66.55;-152.65;67;\N;6252001;66.55, -152.65
DIO;Diomede Island;Diomede Island;United States;US;65.75;-168.95;67;\N;6252001;65.75, -168.95
ELW;Ellamar;Ellamar;United States;US;60.897222;-146.6125;67;\N;6252001;60.897222, -146.6125
PSM;Pease International;Portsmouth, NH;United States;US;43.078056;-70.823333;67;5224082;6252001;43.078056, -70.823333
DAA;Davison AAF;Fort Belvoir;United States;US;38.716667;-77.183333;67;\N;6252001;38.716667, -77.183333
RCA;Ellsworth Afb;Rapid City;United States;US;44.145;-103.103611;67;5768233;6252001;44.145, -103.103611
IAG;International;Niagara Falls;United States;US;43.1;-79.033333;67;5128723;6252001;43.1, -79.033333
MIB;Minot AFB;Minot;United States;US;47.666667;4.866667;67;5690532;6252001;47.666667, 4.866667
NPH;Nephi;Nephi;United States;US;39.738889;-111.870833;67;5543853;6252001;39.738889, -111.870833
ZVE;New Haven Rail;New Haven;United States;US;6.083333;-58.133333;67;5003384;6252001;6.083333, -58.133333
BDX;Broadus;Broadus;United States;US;45.45;-105.416667;67;\N;6252001;45.45, -105.416667
LBB;International;Lubbock;United States;US;33.666667;-101.833333;67;5525577;6252001;33.666667, -101.833333
SBD;Norton Afb;San Bernardino;United States;US;34.095278;-117.235;67;5391710;6252001;34.095278, -117.235
BCB;Virginia Tech;Blacksburg;United States;US;37.233333;-80.416667;67;4747845;6252001;37.233333, -80.416667
BML;Berlin Municipal Airport;Berlin;United States;US;44.575278;-71.175833;67;5245497;6252001;44.575278, -71.175833
GCC;Campbell County;Gillette;United States;US;44.35;-105.533333;67;5826027;6252001;44.35, -105.533333
MPO;Mt Pocono;Mt Pocono;United States;US;41.133333;-75.366667;67;\N;6252001;41.133333, -75.366667
ZGD;New London Rail;Groton;United States;US;-8.735278;125.352222;67;5281020;6252001;-8.735278, 125.352222
TPA;Tampa International;Tampa;United States;US;27.975556;-82.533056;67;4174757;6252001;27.975556, -82.533056
TOA;Torrance Airport;Torrance;United States;US;33.805;-118.343889;67;5403022;6252001;33.805, -118.343889
TDO;Winlock;Toledo;United States;US;6.533333;-75.783333;67;5757007;6252001;6.533333, -75.783333
VAK;Chevak;Chevak;United States;US;61.528611;-165.590278;67;\N;6252001;61.528611, -165.590278
FTK;Godman AAF;Fort Knox;United States;US;19.833333;-72.5;67;\N;6252001;19.833333, -72.5
FAM;Regional;Farmington;United States;US;37.673333;-90.233889;67;5774662;6252001;37.673333, -90.233889
SOV;Seldovia;Seldovia;United States;US;59.45;-151.7;67;\N;6252001;59.45, -151.7
DNL;Daniel Field;Augusta, GA;United States;US;33.466389;-82.039444;67;5244365;6252001;33.466389, -82.039444
KZB;Zachar Bay SPB;Zachar Bay;United States;US;57.55;-153.75;67;\N;6252001;57.55, -153.75
HVS;Municipal;Hartsville;United States;US;34.4;-80.116667;67;4628109;6252001;34.4, -80.116667
CHO;Albemarle;Charlottesville;United States;US;38.133333;-78.45;67;4752031;6252001;38.133333, -78.45
NES;East 34th St Landing;New York;United States;US;5.5;-70.483333;67;5128581;6252001;5.5, -70.483333
LKV;Lake County;Lakeview;United States;US;42.166667;-120.4;67;5735792;6252001;42.166667, -120.4
MIO;Miami;Miami;United States;US;10.016667;-73.65;67;5304640;6252001;10.016667, -73.65
HYR;Municipal;Hayward;United States;US;46.033333;-91.45;67;5355933;6252001;46.033333, -91.45
BCJ;Baca Grande;Baca Grande;United States;US;37.966667;-105.766667;67;\N;6252001;37.966667, -105.766667
PSC;Tri-cities;Pasco, WA;United States;US;46.264722;-119.119167;67;5806298;6252001;46.264722, -119.119167
CBE;Wiley Ford;Cumberland;United States;US;39.6;-78.766667;67;5249896;6252001;39.6, -78.766667
GDM;Municipal;Gardner;United States;US;42.566667;-72.0;67;4937557;6252001;42.566667, -72.0
UQE;Queen;Queen;United States;US;58.883333;-158.5;67;\N;6252001;58.883333, -158.5
AHC;Amedee AAF;Herlong;United States;US;60.572222;4.951667;67;\N;6252001;60.572222, 4.951667
PSP;Municipal;Palm Springs;United States;US;33.833333;-116.5;67;5380668;6252001;33.833333, -116.5
EED;Needles;Needles;United States;US;34.85;-114.616667;67;5376358;6252001;34.85, -114.616667
FST;Pecos County;Fort Stockton;United States;US;30.916667;-102.916667;67;5521746;6252001;30.916667, -102.916667
SSC;Shaw AFB;Sumter;United States;US;53.283333;10.9;67;4597948;6252001;53.283333, 10.9
ESC;Delta County Arpt;Escanaba;United States;US;45.722778;-87.093611;67;4992232;6252001;45.722778, -87.093611
VPS;Eglin AFB;Valparaiso, FL;United States;US;30.483333;-86.525278;67;4927537;6252001;30.483333, -86.525278
CSM;Sherman;Clinton;United States;US;35.516667;-98.983333;67;5773001;6252001;35.516667, -98.983333
MHN;Mullen;Mullen;United States;US;42.05;-101.066667;67;\N;6252001;42.05, -101.066667
HUL;International;Houlton;United States;US;46.133333;-67.8;67;4967563;6252001;46.133333, -67.8
SNK;Winston Field;Snyder;United States;US;32.7;-100.95;67;5530921;6252001;32.7, -100.95
RBL;Red Bluff Fss;Red Bluff;United States;US;40.15;-122.25;67;5570065;6252001;40.15, -122.25
CZO;Chistochina;Chistochina;United States;US;62.566667;-144.666667;67;\N;6252001;62.566667, -144.666667
HAO;Hamilton;Hamilton;United States;US;39.433333;-84.5;67;5655959;6252001;39.433333, -84.5
HUF;Hulman Field;Terre Haute;United States;US;10.733333;-61.35;67;4265737;6252001;10.733333, -61.35
AHF;Municipal;Arapahoe;United States;US;15.316667;-88.883333;67;5817340;6252001;15.316667, -88.883333
VEL;Vernal;Vernal, UT;United States;US;40.45;-109.516667;67;5784154;6252001;40.45, -109.516667
BOF;Bolling AFB;Washington;United States;US;49.0;-72.5;67;5549222;6252001;49.0, -72.5
JPD;Heliport;Pasadena;United States;US;34.133333;-118.133333;67;5381396;6252001;34.133333, -118.133333
EOK;Keokuk;Keokuk;United States;US;40.466667;-91.433333;67;4863349;6252001;40.466667, -91.433333
JNH;North Park Inn H/P;Dallas;United States;US;7.716667;40.916667;67;5722064;6252001;7.716667, 40.916667
NSF;Andrews NAF;Camp Springs;United States;US;19.35;100.55;67;4350288;6252001;19.35, 100.55
CCB;Cable Airport;Upland, CA;United States;US;34.111667;-117.6875;67;5404915;6252001;34.111667, -117.6875
LZU;Gwinnett County Airport;Lawrenceville;United States;US;33.978056;-83.9625;67;5100356;6252001;33.978056, -83.9625
MNN;Municipal;Marion;United States;US;40.616667;-83.066667;67;5261872;6252001;40.616667, -83.066667
SVS;Stevens Village;Stevens Village;United States;US;66.033333;-149.1;67;\N;6252001;66.033333, -149.1
ACV;Arcata;Arcata;United States;US;40.983333;-124.1;67;5558953;6252001;40.983333, -124.1
FDR;Municipal;Frederick;United States;US;34.35;-98.983333;67;5577217;6252001;34.35, -98.983333
GUS;Grissom Afb;Peru, Indiana;United States;US;40.648056;-86.152222;67;5131010;6252001;40.648056, -86.152222
CAE;Metropolitan Airport;Columbia, SC;United States;US;33.95;-81.116667;67;5338800;6252001;33.95, -81.116667
HKA;Municipal;Blytheville;United States;US;35.933333;-89.916667;67;4102412;6252001;35.933333, -89.916667
THM;Thompsonfield;Thompsonfield;United States;US;50.233333;-1.566666999999999;67;\N;6252001;50.233333, -1.566666999999999
XPU;West Kuparuk;West Kuparuk;United States;US;70.333333;-149.333333;67;\N;6252001;70.333333, -149.333333
CHL;Challis;Challis;United States;US;44.5;-114.233333;67;\N;6252001;44.5, -114.233333
ASE;Aspen;Aspen;United States;US;39.223056;-106.868889;67;5412230;6252001;39.223056, -106.868889
SUO;Sun River;Sun River;United States;US;-0.533333;-88.55;67;\N;6252001;-0.533333, -88.55
OCW;Warren Field;Washington;United States;US;35.55;-77.05;67;5549222;6252001;35.55, -77.05
TOP;Philip Billard;Topeka;United States;US;-13.35;32.766667;67;4927264;6252001;-13.35, 32.766667
UKN;Municipal;Waukon;United States;US;43.266667;-91.483333;67;4880997;6252001;43.266667, -91.483333
PTW;Pottstown/Limerick;Pottstown;United States;US;40.233333;-75.65;67;5207069;6252001;40.233333, -75.65
PRC;Prescott;Prescott;United States;US;34.65;-112.416667;67;5309842;6252001;34.65, -112.416667
IMT;Ford;Iron Mountain;United States;US;45.816667;-88.116667;67;4997232;6252001;45.816667, -88.116667
ARV;Noble F. Lee;Minocqua;United States;US;45.916667;-89.733333;67;\N;6252001;45.916667, -89.733333
PSN;Palestine Municipal Airport;Palestine, TX;United States;US;31.779722;-95.706389;67;4717232;6252001;31.779722, -95.706389
SLJ;Stellar Air Park;Chandler;United States;US;33.319444;-111.9;67;5289282;6252001;33.319444, -111.9
SER;Freeman Municipal;Seymour;United States;US;38.95;-85.883333;67;5272776;6252001;38.95, -85.883333
FMS;Municipal;Fort Madison;United States;US;40.65;-91.316667;67;4857507;6252001;40.65, -91.316667
JMN;Municipal Heliport;Mankato;United States;US;44.168889;-93.995;67;5036420;6252001;44.168889, -93.995
CLI;Clintonville;Clintonville;United States;US;43.6;-81.533333;67;5248985;6252001;43.6, -81.533333
ZRK;VanGalder Bus Termina;Rockford;United States;US;-32.85;24.166667;67;5168451;6252001;-32.85, 24.166667
CHI;Chicago FSS;Chicago;United States;US;41.883056;-87.766111;67;4887398;6252001;41.883056, -87.766111
SUN;Sun Valley;Sun Valley;United States;US;43.5;-114.316667;67;5609286;6252001;43.5, -114.316667
RIR;Riverside Fla-Bob;Riverside;United States;US;-29.666667;30.016667;67;5387877;6252001;-29.666667, 30.016667
ZUA;Utica NNY Rail;Utica;United States;US;37.066667;10.066667;67;5174913;6252001;37.066667, 10.066667
VCB;View Cove;View Cove;United States;US;55.080556;-133.016667;67;\N;6252001;55.080556, -133.016667
CHS;Charleston, AFB Municipal;Charleston, SC;United States;US;32.898611;-80.040556;67;4960682;6252001;32.898611, -80.040556
EUE;Eureka;Eureka;United States;US;39.516667;-115.966667;67;5651208;6252001;39.516667, -115.966667
KXA;Kasaan SPB;Kasaan;United States;US;55.5;-132.5;67;\N;6252001;55.5, -132.5
UMT;Umiat;Umiat;United States;US;69.366667;-152.133333;67;\N;6252001;69.366667, -152.133333
YNG;Youngstown;Youngstown;United States;US;41.266667;-80.666667;67;5177568;6252001;41.266667, -80.666667
SNL;Municipal;Shawnee;United States;US;35.316667;-96.916667;67;4551177;6252001;35.316667, -96.916667
EGE;Eagle County;Vail/Eagle;United States;US;39.633333;-106.916667;67;5442727;6252001;39.633333, -106.916667
RNO;Reno-Tahoe International;Reno, NV;United States;US;39.499167;-119.768056;67;5511077;6252001;39.499167, -119.768056
CNW;TSTC Waco Airport;Waco, TX;United States;US;31.637778;-97.074167;67;4739526;6252001;31.637778, -97.074167
CZP;Cape Pole;Cape Pole;United States;US;55.966667;-133.783333;67;\N;6252001;55.966667, -133.783333
ENA;Kenai;Kenai;United States;US;60.55;-151.266667;67;5866063;6252001;60.55, -151.266667
SES;Selfield;Selma;United States;US;32.45;-86.95;67;5394329;6252001;32.45, -86.95
ANN;Annette Island;Annette Island;United States;US;55.033333;-131.566667;67;\N;6252001;55.033333, -131.566667
EDF;Elmendorf Afb;Anchorage;United States;US;61.251389;-149.806389;67;5879400;6252001;61.251389, -149.806389
AXS;Municipal;Altus;United States;US;34.702778;-99.333333;67;4529292;6252001;34.702778, -99.333333
UIN;Municipal;Quincy;United States;US;39.933333;-91.183333;67;5807713;6252001;39.933333, -91.183333
VNY;Van Nuys;Los Angeles, CA;United States;US;34.209722;-118.49;67;5368361;6252001;34.209722, -118.49
GBO;Baltimore Greenbelt T;Baltimore;United States;US;39.186111;-76.683333;67;4505716;6252001;39.186111, -76.683333
MEJ;Meadville;Meadville;United States;US;41.619444;-80.2;67;5200644;6252001;41.619444, -80.2
DTR;Decatur Island;Decatur Island;United States;US;42.218611;-83.348333;67;\N;6252001;42.218611, -83.348333
TBN;Forney AAF;Fort Leonard Wood;United States;US;37.733333;-92.15;67;\N;6252001;37.733333, -92.15
LNS;Lancaster;Lancaster;United States;US;40.116667;-76.3;67;5364940;6252001;40.116667, -76.3
LTW;St Marys County;Leonardtown;United States;US;38.283333;-77.633333;67;4360551;6252001;38.283333, -77.633333
VOK;Volk Field;Camp Douglas;United States;US;43.916667;-90.266667;67;\N;6252001;43.916667, -90.266667
YIP;Willow Run;Detroit, MI;United States;US;42.25;-83.383333;67;4990729;6252001;42.25, -83.383333
BBX;Wings Field;Blue Bell;United States;US;40.15;-75.266667;67;5180961;6252001;40.15, -75.266667
ZRV;Providence Rail;Providence;United States;US;4.616667;-54.4;67;5780020;6252001;4.616667, -54.4
DTH;Death Valley;Death Valley;United States;US;36.452222;-116.869167;67;\N;6252001;36.452222, -116.869167
COI;Merritt Island;Cocoa;United States;US;28.133333;-80.633333;67;4151440;6252001;28.133333, -80.633333
OTO;Vor;Otto;United States;US;35.072222;-105.935556;67;\N;6252001;35.072222, -105.935556
BDG;Blanding;Blanding;United States;US;37.583333;-109.483333;67;5535484;6252001;37.583333, -109.483333
VNC;Venice Municipal;Venice, FL;United States;US;27.071667;-82.440278;67;4251958;6252001;27.071667, -82.440278
LHV;W T Piper Memorial;Lock Haven;United States;US;41.133333;-77.45;67;5198635;6252001;41.133333, -77.45
ISL;Isabel Pass;Isabel Pass;United States;US;63.5;-145.033333;67;\N;6252001;63.5, -145.033333
PNC;Ponca City;Ponca City;United States;US;36.733333;-97.1;67;4548267;6252001;36.733333, -97.1
TBR;Statesboro-Bulloch County Airport;Statesboro, GA;United States;US;32.482778;-81.736944;67;4224413;6252001;32.482778, -81.736944
NGU;Nas Chambers;Norfolk;United States;US;36.937778;-76.289444;67;5128862;6252001;36.937778, -76.289444
ESF;Esler Field;Alexandria;United States;US;31.4;-92.3;67;5082573;6252001;31.4, -92.3
AFW;Fort Worth Alliance;Fort Worth, TX;United States;US;32.987778;-97.318889;67;4691930;6252001;32.987778, -97.318889
COP;Cooperstown - Westville Airport;Cooperstown, NY;United States;US;42.629167;-74.891111;67;5113664;6252001;42.629167, -74.891111
DHT;Dalhart;Dalhart;United States;US;12.186111;42.89;67;5519862;6252001;12.186111, 42.89
GLH;Greenville;Greenville;United States;US;33.477222;-90.985;67;5564488;6252001;33.477222, -90.985
NEW;Lakefront;New Orleans;United States;US;30.049444;-90.028889;67;4335045;6252001;30.049444, -90.028889
QWP;Van Service;Winter Park;United States;US;11.033333;3.65;67;4178560;6252001;11.033333, 3.65
BCE;Bryce;Bryce;United States;US;37.7;-112.15;67;\N;6252001;37.7, -112.15
YKN;Chan Gurney;Yankton;United States;US;42.916667;-97.383333;67;5233053;6252001;42.916667, -97.383333
EXI;SPB;Excursion Inlet;United States;US;58.416667;-135.433333;67;\N;6252001;58.416667, -135.433333
BYH;Blytheville AFB;Blytheville;United States;US;-13.25;130.7;67;4102412;6252001;-13.25, 130.7
MHT;Manchester-boston Regional Airport;Manchester, NH;United States;US;42.9325;-71.435556;67;5802247;6252001;42.9325, -71.435556
BLU;Blue Canyon;Blue Canyon;United States;US;51.181111;-3.401389;67;\N;6252001;51.181111, -3.401389
BGD;Borger;Borger;United States;US;35.65;-101.4;67;5517469;6252001;35.65, -101.4
PDK;Dekalb-Peachtree;Atlanta, GA;United States;US;33.875556;-84.301944;67;4883772;6252001;33.875556, -84.301944
WDG;Enid Woodring Mun.;Enid;United States;US;36.383333;-97.783333;67;4535961;6252001;36.383333, -97.783333
NVD;Nevada;Nevada;United States;US;37.85;-94.3;67;4868620;6252001;37.85, -94.3
HRL;Valley International;Harlingen;United States;US;26.2;-97.75;67;4696233;6252001;26.2, -97.75
WKL;Waikoloa Airport;Waikoloa;United States;US;19.916667;-155.866667;67;\N;6252001;19.916667, -155.866667
CAK;Akron/canton Regional;Akron/Canton, OH;United States;US;40.916111;-81.442222;67;5574199;6252001;40.916111, -81.442222
LNI;Dew Station;Lonely;United States;US;70.916667;-153.25;67;\N;6252001;70.916667, -153.25
SKW;Intermediate;Skwentna;United States;US;61.95;-151.2;67;\N;6252001;61.95, -151.2
FFO;Patterson Afb;Dayton;United States;US;39.826111;-84.048333;67;6545140;6252001;39.826111, -84.048333
TKE;Tenakee SPB;Tenakee Springs;United States;US;43.286389;18.933056;67;\N;6252001;43.286389, 18.933056
BTL;WK Kellogg Regional;Battle Creek;United States;US;42.3;-85.25;67;5063564;6252001;42.3, -85.25
BSF;Bradshaw AAF;Pohakuloa;United States;US;66.15;25.866667;67;\N;6252001;66.15, 25.866667
FOX;Fox;Fox;United States;US;64.85;-147.766667;67;\N;6252001;64.85, -147.766667
THP;Hot Springs;Thermopolis;United States;US;40.9;23.55;67;5840846;6252001;40.9, 23.55
KYU;Koyukuk;Koyukuk;United States;US;64.9;-157.7;67;\N;6252001;64.9, -157.7
NOL;Nakolik River;Nakolik River;United States;US;50.483333;21.45;67;\N;6252001;50.483333, 21.45
ZSF;Springfield MA RR;Springfield;United States;US;44.633333;-64.85;67;5754005;6252001;44.633333, -64.85
DCK;Dahl Creek Arpt;Dahl Creek;United States;US;66.933333;-156.9;67;\N;6252001;66.933333, -156.9
OTN;Green;Oaktown;United States;US;38.866667;-87.433333;67;\N;6252001;38.866667, -87.433333
SEG;Penn Valley;Selinsgrove;United States;US;40.783333;-76.85;67;5211411;6252001;40.783333, -76.85
DGW;Converse County;Douglas;United States;US;42.75;-105.4;67;5823516;6252001;42.75, -105.4
KKA;Koyuk;Koyuk;United States;US;64.916667;-161.133333;67;\N;6252001;64.916667, -161.133333
LGD;La Grande;La Grande;United States;US;45.316667;-118.033333;67;5735537;6252001;45.316667, -118.033333
LEE;Leesburg;Leesburg;United States;US;28.833333;-81.816667;67;4769125;6252001;28.833333, -81.816667
OVE;Oroville;Oroville;United States;US;39.483333;-121.633333;67;5805838;6252001;39.483333, -121.633333
WWR;West Woodward;Woodward;United States;US;36.433333;-99.516667;67;4882453;6252001;36.433333, -99.516667
ADK;Adak Island Ns;Adak Island;United States;US;51.878056;-176.646111;67;\N;6252001;51.878056, -176.646111
EEN;Dillant-Hopkins;Keene;United States;US;42.9;-72.266667;67;5088262;6252001;42.9, -72.266667
AVO;Municipal;Avon Park;United States;US;27.6;-81.516667;67;4146440;6252001;27.6, -81.516667
FDK;Frederick Municipal;Frederick;United States;US;39.4175;-77.374444;67;5577217;6252001;39.4175, -77.374444
PKF;Park Falls;Park Falls;United States;US;45.933333;-90.433333;67;5266230;6252001;45.933333, -90.433333
PTC;Port Alice;Port Alice;United States;US;55.791667;-133.6;67;\N;6252001;55.791667, -133.6
DVL;Devils Lake;Devils Lake;United States;US;48.116667;-98.9;67;5058868;6252001;48.116667, -98.9
TRH;Trona;Trona;United States;US;35.8125;-117.327222;67;\N;6252001;35.8125, -117.327222
ZPH;Zephyrhills;Zephyrhills;United States;US;28.233333;-82.166667;67;4178941;6252001;28.233333, -82.166667
EVA;Landing Strip;Evadale;United States;US;30.35;-94.066667;67;4689569;6252001;30.35, -94.066667
PTT;Pratt;Pratt;United States;US;37.7;-98.75;67;4277752;6252001;37.7, -98.75
CKD;Crooked Creek;Crooked Creek;United States;US;61.866667;-158.133333;67;\N;6252001;61.866667, -158.133333
DET;Detroit City;Detroit, MI;United States;US;42.409167;-83.009722;67;4990729;6252001;42.409167, -83.009722
OCE;Municipal;Ocean City;United States;US;38.316667;-75.116667;67;4503351;6252001;38.316667, -75.116667
PPV;Port Protection;Port Protection;United States;US;56.333333;-133.666667;67;\N;6252001;56.333333, -133.666667
APN;Alpena County Regional;Alpena;United States;US;45.083333;-83.55;67;4984075;6252001;45.083333, -83.55
TSG;Intermediate;Tanacross;United States;US;45.228056;18.073333;67;\N;6252001;45.228056, 18.073333
RDV;Red Devil;Red Devil;United States;US;61.833333;-157.333333;67;\N;6252001;61.833333, -157.333333
OCF;Taylor Field;Ocala;United States;US;29.166667;-82.216667;67;4166673;6252001;29.166667, -82.216667
MGM;Dannelly Fld;Montgomery;United States;US;32.3;-86.4;67;5201752;6252001;32.3, -86.4
WCR;Chandalar;Chandalar;United States;US;67.5;-148.5;67;\N;6252001;67.5, -148.5
CHA;Lovell Field;Chattanooga,TN;United States;US;35.035278;-85.203889;67;4612862;6252001;35.035278, -85.203889
XPR;Pine Ridge;Pine Ridge;United States;US;43.016667;-102.516667;67;5767939;6252001;43.016667, -102.516667
MQY;Smyrna;Smyrna;United States;US;35.983333;-86.516667;67;4658590;6252001;35.983333, -86.516667
AYZ;Zahns;Amityville;United States;US;40.666667;-73.416667;67;5107140;6252001;40.666667, -73.416667
SRU;Skypark;Santa Cruz;United States;US;2.166667;-76.1;67;5393052;6252001;2.166667, -76.1
ZNC;Nyac;Nyac;United States;US;60.983333;-159.983333;67;\N;6252001;60.983333, -159.983333
SME;Pulaski County;Somerset;United States;US;37.083333;-84.6;67;5273620;6252001;37.083333, -84.6
RNC;Warren County;Mcminnville;United States;US;-24.016667;132.25;67;5739936;6252001;-24.016667, 132.25
PMB;Intermediate;Pembina;United States;US;48.95;-97.233333;67;\N;6252001;48.95, -97.233333
OCI;Oceanic;Oceanic;United States;US;60.1;-148.216667;67;\N;6252001;60.1, -148.216667
PTU;Platinum;Platinum;United States;US;59.016667;-161.816667;67;\N;6252001;59.016667, -161.816667
MOR;Moore-Murrell;Morristown;United States;US;36.183333;-83.366667;67;5238755;6252001;36.183333, -83.366667
SFZ;North Central;Pawtucket, RI;United States;US;41.920833;-71.491389;67;5223869;6252001;41.920833, -71.491389
MIF;Roy Hurd Memorial;Monahans;United States;US;31.6;-102.9;67;5526514;6252001;31.6, -102.9
CKX;Chicken;Chicken;United States;US;64.083333;-141.916667;67;\N;6252001;64.083333, -141.916667
SCH;Schenectady County;Schenectady, NY;United States;US;42.8525;-73.928889;67;5136454;6252001;42.8525, -73.928889
TNC;Tin City Afs;Tin City, AK;United States;US;65.563056;-167.921667;67;\N;6252001;65.563056, -167.921667
HED;Herendeen;Herendeen;United States;US;55.8;-160.9;67;\N;6252001;55.8, -160.9
DRU;Drummond;Drummond;United States;US;46.616667;-113.2;67;\N;6252001;46.616667, -113.2
SKJ;Sitkinak Cgs;Sitkinak Island;United States;US;56.533333;-154.133333;67;\N;6252001;56.533333, -154.133333
ERV;Kerrville;Kerrville;United States;US;29.983333;-99.083333;67;4703078;6252001;29.983333, -99.083333
DRO;La Plata;Durango;United States;US;37.15;-107.75;67;5420241;6252001;37.15, -107.75
IJX;Municipal;Jacksonville;United States;US;39.766667;-90.233333;67;5733409;6252001;39.766667, -90.233333
HIO;Portland;Hillsboro;United States;US;45.516667;-122.983333;67;5731371;6252001;45.516667, -122.983333
BVO;Bartlesville;Bartlesville;United States;US;36.766667;-96.0;67;4529987;6252001;36.766667, -96.0
KGZ;Glacier Creek;Glacier Creek;United States;US;61.45;-142.4;67;\N;6252001;61.45, -142.4
RME;Griffiss AFB;Rome, NY;United States;US;43.233889;-75.406944;67;5134295;6252001;43.233889, -75.406944
LHM;Lincoln Regional Airport;Lincoln, CA;United States;US;38.909167;-121.351389;67;5690162;6252001;38.909167, -121.351389
FNT;Bishop International Airport;Flint;United States;US;42.965556;-83.743611;67;4992982;6252001;42.965556, -83.743611
PRT;Coast Guard Heliport;Point Retreat;United States;US;47.533333;12.516667;67;\N;6252001;47.533333, 12.516667
AXX;Angel Fire;Angel Fire;United States;US;36.416667;-105.283333;67;\N;6252001;36.416667, -105.283333
SPQ;Catalina SPB;San Pedro;United States;US;33.75;-118.366667;67;\N;6252001;33.75, -118.366667
GUN;Gunter AFB;Montgomery;United States;US;51.066667;-1.166667;67;5201752;6252001;51.066667, -1.166667
OEA;Oneal;Vincennes;United States;US;38.666667;-87.516667;67;4266307;6252001;38.666667, -87.516667
RCT;Miller Field;Reed City;United States;US;43.9;-85.516667;67;5006946;6252001;43.9, -85.516667
CBK;Municipal;Colby;United States;US;39.416667;-101.05;67;5445194;6252001;39.416667, -101.05
OCA;Ocean Reef;Ocean Reef;United States;US;25.366667;-80.266667;67;\N;6252001;25.366667, -80.266667
CHZ;State;Chiloquin;United States;US;42.583333;-121.866667;67;\N;6252001;42.583333, -121.866667
FIC;Fire Cove;Fire Cove;United States;US;55.777778;-131.5375;67;\N;6252001;55.777778, -131.5375
CRE;Grand Strand Airport;Myrtle Beach;United States;US;33.811667;-78.723889;67;4588718;6252001;33.811667, -78.723889
HMS;Homeshore;Homeshore AK;United States;US;58.294444;-135.347222;67;\N;6252001;58.294444, -135.347222
UUK;Kuparuk;Kuparuk;United States;US;70.416667;-148.916667;67;\N;6252001;70.416667, -148.916667
MLB;Melbourne International Airport;Melbourne;United States;US;28.1;-80.633333;67;4163971;6252001;28.1, -80.633333
IRB;Municipal;Iraan;United States;US;30.9;-101.9;67;5523798;6252001;30.9, -101.9
BRG;Municipal;Whitesburg;United States;US;37.116667;-82.816667;67;4313346;6252001;37.116667, -82.816667
ASY;Ashley;Ashley;United States;US;46.033333;-99.366667;67;5178612;6252001;46.033333, -99.366667
BXC;Boxborough;Boxborough;United States;US;42.483611;-71.535278;67;\N;6252001;42.483611, -71.535278
LRD;International;Laredo;United States;US;27.533333;-99.466667;67;4705349;6252001;27.533333, -99.466667
KEU;Kelly Bar;Kelly Bar;United States;US;50.6;-4.266667;67;\N;6252001;50.6, -4.266667
CLD;Mc Clellan-Palomar Airport;Carlsbad, CA;United States;US;33.116667;-117.266667;67;5460459;6252001;33.116667, -117.266667
PMX;Metropolitan;Palmer;United States;US;42.15;-72.316667;67;5871146;6252001;42.15, -72.316667
ZML;Milwaukee General Mitchell;Milwaukee,;United States;US;32.466667;171.916667;67;5263045;6252001;32.466667, 171.916667
MGW;Morgantown;Morgantown;United States;US;39.633333;-79.916667;67;4815352;6252001;39.633333, -79.916667
SCK;Stockton Metropolitan Airport;Stockton;United States;US;37.9;-121.25;67;5399020;6252001;37.9, -121.25
PAQ;Municipal;Palmer;United States;US;61.6;-149.116667;67;5871146;6252001;61.6, -149.116667
JSD;Sikorsky Heliport;Stratford, CT;United States;US;41.249167;-73.096667;67;5531815;6252001;41.249167, -73.096667
CIK;Chalkyitsik;Chalkyitsik;United States;US;66.65;-143.75;67;\N;6252001;66.65, -143.75
LPW;Little Port Walter;Little Port Walter;United States;US;56.383333;-134.833333;67;\N;6252001;56.383333, -134.833333
LQK;Pickens;Pickens;United States;US;34.816667;-82.7;67;4590946;6252001;34.816667, -82.7
BSZ;Bartletts;Bartletts;United States;US;58.266667;-157.483333;67;\N;6252001;58.266667, -157.483333
CLT;Charlotte Douglas;Charlotte;United States;US;35.216667;-80.933333;67;4988584;6252001;35.216667, -80.933333
HOM;Homer;Homer;United States;US;59.633333;-151.5;67;5864145;6252001;59.633333, -151.5
CTO;Peconic River;Calverton;United States;US;40.916667;-72.75;67;5111137;6252001;40.916667, -72.75
PLR;St Clair County;Pell City;United States;US;33.583333;-86.283333;67;4082589;6252001;33.583333, -86.283333
LRF;Little Rock Afb;Jacksonville;United States;US;34.918056;-92.146389;67;5733409;6252001;34.918056, -92.146389
WVL;Robert Lafleur;Waterville;United States;US;44.533333;-69.666667;67;5815184;6252001;44.533333, -69.666667
LAX;Los Angeles International;Los Angeles;United States;US;33.9425;-118.407222;67;5368361;6252001;33.9425, -118.407222
PEC;Pelican SPB;Pelican;United States;US;57.95;-136.233333;67;\N;6252001;57.95, -136.233333
RST;International;Rochester;United States;US;43.908333;-92.5;67;5808524;6252001;43.908333, -92.5
CGI;Cape Girardeau;Cape Girardeau;United States;US;37.216667;-89.566667;67;4379966;6252001;37.216667, -89.566667
ATE;Antlers;Antlers;United States;US;34.233333;-95.616667;67;4529418;6252001;34.233333, -95.616667
CCR;Buchanan Fld;Concord;United States;US;37.983333;-122.052778;67;5339111;6252001;37.983333, -122.052778
BNW;Boone;Boone;United States;US;42.066667;-93.883333;67;4849051;6252001;42.066667, -93.883333
PMD;La Palmdale Regional Airport;Palmdale, CA;United States;US;34.629444;-118.084444;67;5380698;6252001;34.629444, -118.084444
ELA;Eagle Lake;Eagle Lake;United States;US;29.583333;-96.333333;67;5251145;6252001;29.583333, -96.333333
PGR;Municipal;Paragould;United States;US;36.05;-90.5;67;4125388;6252001;36.05, -90.5
KPC;Port Clarence;Port Clarence;United States;US;65.25;-166.85;67;\N;6252001;65.25, -166.85
ALO;Waterloo;Waterloo;United States;US;42.55;-92.383333;67;5277989;6252001;42.55, -92.383333
BGE;Decatur County;Bainbridge;United States;US;30.9;-84.6;67;5146368;6252001;30.9, -84.6
DUT;Emergency Field;Dutch Harbor;United States;US;53.9;-166.533333;67;\N;6252001;53.9, -166.533333
FAY;Municipal;Fayetteville;United States;US;35.0;-78.883333;67;5116968;6252001;35.0, -78.883333
OLY;Olney-Noble;Olney;United States;US;38.716667;-88.083333;67;4716683;6252001;38.716667, -88.083333
WSJ;San Juan SPB;San Juan;United States;US;57.733333;-153.3;67;4726440;6252001;57.733333, -153.3
PCK;Porcupine Creek;Porcupine Creek;United States;US;67.25;-150.283333;67;\N;6252001;67.25, -150.283333
ILL;Willmar;Willmar;United States;US;45.116667;-95.1;67;5052916;6252001;45.116667, -95.1
MLS;Municipal;Miles City;United States;US;46.433333;-105.883333;67;5666176;6252001;46.433333, -105.883333
ONN;Onion Bay;Onion Bay;United States;US;58.233333;-152.833333;67;\N;6252001;58.233333, -152.833333
SNS;Salinas;Salinas;United States;US;36.666667;-121.616667;67;5391295;6252001;36.666667, -121.616667
SEF;Sebring Regional Airport;Sebring, Fl;United States;US;27.456389;-81.3425;67;5171555;6252001;27.456389, -81.3425
GPT;Gulfport-Biloxi International;Gulfport;United States;US;30.4;-89.066667;67;4428667;6252001;30.4, -89.066667
IPT;Lycoming County;Williamsport;United States;US;41.25;-76.916667;67;5219585;6252001;41.25, -76.916667
KOY;Olga Bay SPB;Olga Bay;United States;US;57.15;-154.233333;67;\N;6252001;57.15, -154.233333
PDB;Pedro Bay;Pedro Bay;United States;US;59.783333;-154.116667;67;\N;6252001;59.783333, -154.116667
PUC;Carbon County;Price;United States;US;39.602778;-110.75;67;5545269;6252001;39.602778, -110.75
LLX;Lyndonville;Lyndonville;United States;US;44.5;-72.016667;67;5238203;6252001;44.5, -72.016667
CLP;Clarks Point;Clarks Point;United States;US;58.85;-158.5;67;\N;6252001;58.85, -158.5
EPG;Browns;Weeping Water;United States;US;40.866667;-96.133333;67;5081518;6252001;40.866667, -96.133333
ABQ;Albuquerque International;Albuquerque;United States;US;35.040278;-106.609167;67;5454711;6252001;35.040278, -106.609167
NCQ;Atlanta Nas;Marietta, GA;United States;US;34.351111;-84.287222;67;5802418;6252001;34.351111, -84.287222
CEA;Cessna Aircraft Field;Wichita;United States;US;15.658889;101.1125;67;4281730;6252001;15.658889, 101.1125
HIK;Hickam AFB;Honolulu;United States;US;21.316111;-157.926667;67;5856195;6252001;21.316111, -157.926667
HVN;New Haven;New Haven;United States;US;41.266667;-72.883333;67;5003384;6252001;41.266667, -72.883333
TKF;Truckee-Tahoe;Truckee, CA;United States;US;39.32;-120.139444;67;5403676;6252001;39.32, -120.139444
BFP;Beaver Falls;Beaver Falls;United States;US;40.766667;-80.4;67;5179478;6252001;40.766667, -80.4
SVH;Municipal;Statesville;United States;US;35.766667;-80.95;67;4493316;6252001;35.766667, -80.95
DUF;Pine Island Airport;Corolla, NC;United States;US;36.253611;-75.788611;67;\N;6252001;36.253611, -75.788611
AMA;Rick Husband Amarillo International;Amarillo, TX;United States;US;35.226389;-101.705833;67;5516233;6252001;35.226389, -101.705833
GEY;South Big Horn County;Greybull;United States;US;44.516667;-108.083333;67;5826603;6252001;44.516667, -108.083333
DWH;David Wayne Hooks;Houston;United States;US;30.061944;-95.552778;67;5864312;6252001;30.061944, -95.552778
HUS;Municipal;Hughes;United States;US;66.033333;-154.233333;67;4115578;6252001;66.033333, -154.233333
HAI;Dr Haines;Three Rivers;United States;US;6.0;-9.75;67;5756628;6252001;6.0, -9.75
OOA;Municipal;Oskaloosa;United States;US;41.283333;-92.633333;67;4870239;6252001;41.283333, -92.633333
MPB;SPB;Miami;United States;US;25.775;-80.175;67;5304640;6252001;25.775, -80.175
WLM;Waltham;Waltham;United States;US;42.385278;-71.251389;67;4954380;6252001;42.385278, -71.251389
ZUG;Harrisburg Rail;Harrisburg;United States;US;34.251389;36.009722;67;5730389;6252001;34.251389, 36.009722
MNT;Minto;Minto;United States;US;64.9;-149.166667;67;\N;6252001;64.9, -149.166667
NUP;Nunapitchuk;Nunapitchuk;United States;US;60.883333;-162.466667;67;\N;6252001;60.883333, -162.466667
ATW;Outagamie County;Appleton;United States;US;44.266667;-88.516667;67;5244080;6252001;44.266667, -88.516667
SNP;Saint Paul Island;Saint Paul Island;United States;US;57.166667;-170.216667;67;\N;6252001;57.166667, -170.216667
CTZ;Sampson County;Clinton;United States;US;35.0;-78.333333;67;5773001;6252001;35.0, -78.333333
TNK;Tununak;Tununak;United States;US;72.033333;-80.916667;67;\N;6252001;72.033333, -80.916667
LGU;Cache;Logan;United States;US;41.783333;-111.85;67;5777544;6252001;41.783333, -111.85
WSM;Wiseman;Wiseman;United States;US;67.416667;-150.116667;67;\N;6252001;67.416667, -150.116667
CVN;Municipal;Clovis;United States;US;34.416667;-103.083333;67;5462393;6252001;34.416667, -103.083333
WLW;Glenn County;Willows;United States;US;39.516667;-122.216667;67;5409777;6252001;39.516667, -122.216667
PWM;Intl Jetport;Portland;United States;US;43.65;-70.3;67;5746545;6252001;43.65, -70.3
PQS;Pilot Station;Pilot Station;United States;US;61.933333;-162.883333;67;\N;6252001;61.933333, -162.883333
SAV;Savannah/Hilton Head;Savannah;United States;US;32.133333;-81.2;67;4656006;6252001;32.133333, -81.2
BWC;Brawley;Brawley;United States;US;32.983333;-115.516667;67;5330567;6252001;32.983333, -115.516667
FTW;Meacham Field;Fort Worth;United States;US;32.855556;-96.85;67;4691930;6252001;32.855556, -96.85
PDT;Pendleton;Pendleton;United States;US;45.7;-118.833333;67;5745380;6252001;45.7, -118.833333
PTN;Williams Memorial;Patterson;United States;US;29.75;-91.308333;67;5381515;6252001;29.75, -91.308333
SRW;Rowan County;Salisbury;United States;US;35.633333;-80.516667;67;5136107;6252001;35.633333, -80.516667
AUM;Austin;Austin;United States;US;43.666667;-92.933333;67;5016884;6252001;43.666667, -92.933333
FRN;Bryant AAF;Fort Richardson;United States;US;19.833333;-72.5;67;\N;6252001;19.833333, -72.5
PIZ;Dew Station;Point Lay;United States;US;69.733333;-163.016667;67;\N;6252001;69.733333, -163.016667
FFM;Fergus Falls;Fergus Falls;United States;US;46.283333;-96.166667;67;5026416;6252001;46.283333, -96.166667
TVF;Regional;Thief River Falls;United States;US;52.883333;-0.30000000000000004;67;5049970;6252001;52.883333, -0.30000000000000004
LWB;Greenbrier Valley;Lewisburg;United States;US;37.783333;-80.336111;67;5197842;6252001;37.783333, -80.336111
MPE;Griswold;Madison;United States;US;41.283333;-72.6;67;5261457;6252001;41.283333, -72.6
YAK;Yakutat;Yakutat;United States;US;59.5;-139.666667;67;\N;6252001;59.5, -139.666667
PSB;Bellefonte;Bellefonte;United States;US;60.933333;7.2;67;5179799;6252001;60.933333, 7.2
SDY;Richland Municipal;Sidney;United States;US;47.716667;-104.183333;67;5699552;6252001;47.716667, -104.183333
ALE;Alpine;Alpine;United States;US;30.386111;-103.683333;67;5770732;6252001;30.386111, -103.683333
PWT;Bremerton;Bremerton;United States;US;47.483333;-122.75;67;5788054;6252001;47.483333, -122.75
NYG;Quantico Nas;Quantico;United States;US;38.503611;-77.305;67;\N;6252001;38.503611, -77.305
BTF;Salt Lake Skypark;Bountiful;United States;US;40.883333;-111.883333;67;5771826;6252001;40.883333, -111.883333
PTV;Porterville;Porterville;United States;US;36.033333;-119.066667;67;5384471;6252001;36.033333, -119.066667
GRI;Grand Island;Grand Island, NE;United States;US;40.9675;-98.309722;67;5069297;6252001;40.9675, -98.309722
VTN;Miller Field;Valentine;United States;US;42.85;-100.55;67;5700344;6252001;42.85, -100.55
RKR;Robert S Kerr;Poteau;United States;US;35.05;-94.616667;67;4548363;6252001;35.05, -94.616667
DXR;Danbury Municipal Airport;Danbury, CT;United States;US;41.371667;-73.482222;67;5085222;6252001;41.371667, -73.482222
MKC;Downtown;Kansas City;United States;US;39.116667;-94.583333;67;4393217;6252001;39.116667, -94.583333
LOG;Longview;Longview;United States;US;46.116667;-122.883333;67;5801617;6252001;46.116667, -122.883333
LNA;Palm Beach County Park;West Palm Beach;United States;US;26.593056;-80.085;67;4177887;6252001;26.593056, -80.085
RIF;Reynolds;Richfield;United States;US;38.75;-112.1;67;5545710;6252001;38.75, -112.1
GUP;Senator Clark;Gallup;United States;US;35.516667;-108.783333;67;5468773;6252001;35.516667, -108.783333
CSN;Carson City;Carson City;United States;US;39.2;-119.733333;67;5501344;6252001;39.2, -119.733333
CDB;Cold Bay;Cold Bay;United States;US;55.2;-162.716667;67;\N;6252001;55.2, -162.716667
IYK;Kern County;Inyokern;United States;US;35.65;-117.833333;67;5359623;6252001;35.65, -117.833333
CLG;Coalinga;Coalinga;United States;US;36.15;-120.35;67;5338196;6252001;36.15, -120.35
EPH;Ephrata;Ephrata;United States;US;47.3;-119.516667;67;5793832;6252001;47.3, -119.516667
MWS;Mount Wilson;Mount Wilson;United States;US;51.916667;-2.866667;67;\N;6252001;51.916667, -2.866667
CTX;Cortland;Cortland;United States;US;36.5;33.616667;67;5151174;6252001;36.5, 33.616667
PMH;Greater Portsmouth Regional;Portsmouth, OH;United States;US;38.840556;-82.847222;67;5224082;6252001;38.840556, -82.847222
DAN;Municipal;Danville;United States;US;36.566667;-79.35;67;5341531;6252001;36.566667, -79.35
NZY;North Island Nas;San Diego;United States;US;32.699167;-117.215278;67;5391811;6252001;32.699167, -117.215278
PWA;Wiley Post;Oklahoma City;United States;US;35.534167;-97.666667;67;4544349;6252001;35.534167, -97.666667
AVP;Wilkes-Barre/Scranton International Airport;Wilkes-Barre/Scranton, PA;United States;US;41.338333;-75.723333;67;5219488;6252001;41.338333, -75.723333
BTP;Butler County - Kenny Scholter Field;Butler;United States;US;40.793611;-79.949722;67;5247307;6252001;40.793611, -79.949722
EIL;Eielson AFB;Fairbanks;United States;US;64.665556;-147.101389;67;5861897;6252001;64.665556, -147.101389
LDJ;Linden;Linden;United States;US;40.633333;-74.25;67;5366582;6252001;40.633333, -74.25
JFK;John F Kennedy Intl;New York;United States;US;40.633333;-73.783333;67;5128581;6252001;40.633333, -73.783333
ONM;Socorro;Socorro;United States;US;34.05;-106.883333;67;5530932;6252001;34.05, -106.883333
VYS;Illinois Valley Regnl;Peru;United States;US;41.3525;-89.149722;67;5131010;6252001;41.3525, -89.149722
WSD;Condron AAF;White Sands;United States;US;61.833333;-1.833333;67;5497914;6252001;61.833333, -1.833333
FBK;Ft Wainwright;Fairbanks;United States;US;-32.533333;26.7;67;5861897;6252001;-32.533333, 26.7
LAA;Lamar Field;Lamar;United States;US;38.066667;-102.683333;67;5427957;6252001;38.066667, -102.683333
RCE;Roche Harbor;Roche Harbor;United States;US;48.616667;-123.116667;67;\N;6252001;48.616667, -123.116667
ICY;Icy Bay;Icy Bay;United States;US;59.983333;-141.65;67;\N;6252001;59.983333, -141.65
LAN;Capital City;Lansing;United States;US;42.783333;-84.583333;67;5123993;6252001;42.783333, -84.583333
TPL;Draughon-miller Central Texas Regional;Temple, TX;United States;US;31.1525;-97.407778;67;5215325;6252001;31.1525, -97.407778
TYS;Mc Ghee Tyson;Knoxville;United States;US;35.95;-83.916667;67;4898734;6252001;35.95, -83.916667
DAB;Regional;Daytona Beach;United States;US;29.183333;-81.05;67;4152872;6252001;29.183333, -81.05
WHT;Wharton;Wharton;United States;US;29.316667;-96.1;67;5106361;6252001;29.316667, -96.1
NHX;Barin Olf Osn;Foley;United States;US;30.416667;-87.683333;67;5027025;6252001;30.416667, -87.683333
MDA;Martindale Army Heliport;San Antonio, TX;United States;US;29.431389;-98.377778;67;4726206;6252001;29.431389, -98.377778
MLU;Municipal;Monroe;United States;US;32.5;-92.033333;67;5803786;6252001;32.5, -92.033333
SZP;Oxnard;Santa Paula;United States;US;34.347222;-119.061111;67;5393245;6252001;34.347222, -119.061111
PIP;Pilot Point;Pilot Point;United States;US;57.580278;-157.571944;67;4719021;6252001;57.580278, -157.571944
CBZ;Cabin Creek;Cabin Creek;United States;US;55.383333;-132.416667;67;\N;6252001;55.383333, -132.416667
WHH;Hiltons Har H;Boulder;United States;US;-30.783333;121.483333;67;5641473;6252001;-30.783333, 121.483333
FET;Municipal;Fremont;United States;US;41.433333;-96.5;67;5350734;6252001;41.433333, -96.5
REE;Reese AFB;Lubbock;United States;US;-18.55;126.75;67;5525577;6252001;-18.55, 126.75
EHT;Rentschler;East Hartford;United States;US;41.766667;-72.65;67;4833403;6252001;41.766667, -72.65
SUA;Witham Field;Stuart;United States;US;27.183333;-80.216667;67;4877761;6252001;27.183333, -80.216667
AXG;Algona;Algona;United States;US;43.066667;-94.233333;67;5785484;6252001;43.066667, -94.233333
CKR;Crane Island;Crane Island;United States;US;48.6;-123.0;67;\N;6252001;48.6, -123.0
ORH;Worcester Regional Airport;Worcester;United States;US;42.267222;-71.875833;67;4956184;6252001;42.267222, -71.875833
ALZ;Alitak SPB;Alitak;United States;US;56.895833;-154.245833;67;\N;6252001;56.895833, -154.245833
BYS;Bicycle Lake AAF;Fort Irwin;United States;US;35.283333;-116.633333;67;\N;6252001;35.283333, -116.633333
MCE;Merced Municipal Arpt;Merced;United States;US;37.283333;-120.516667;67;5372253;6252001;37.283333, -120.516667
MGR;Moultrie Municipal;Moultrie;United States;US;31.083333;-83.8;67;4210397;6252001;31.083333, -83.8
PCD;Municipal;Prairie Du Chien;United States;US;43.016667;-91.116667;67;5268002;6252001;43.016667, -91.116667
GRR;Kent County Intl;Grand Rapids;United States;US;42.883333;-85.533333;67;5028537;6252001;42.883333, -85.533333
OKM;Okmulgee;Okmulgee;United States;US;35.616667;-95.966667;67;4544383;6252001;35.616667, -95.966667
PGM;Port Graham;Port Graham;United States;US;59.35;-151.833333;67;\N;6252001;59.35, -151.833333
SUX;Sioux Gateway;Sioux City;United States;US;42.4;-96.383333;67;4876523;6252001;42.4, -96.383333
CRG;Craig Municipal;Jacksonville;United States;US;30.333889;-81.5025;67;5733409;6252001;30.333889, -81.5025
ORI;Port Lions SPB;Port Lions;United States;US;57.883333;-152.85;67;\N;6252001;57.883333, -152.85
INS;Af Aux;Indian Springs;United States;US;46.283333;22.1;67;5506040;6252001;46.283333, 22.1
VJI;Virginia Highlands;Abingdon;United States;US;-0.616667;-90.883333;67;4882839;6252001;-0.616667, -90.883333
UWA;Ware;Ware;United States;US;42.25;-72.233333;67;4954477;6252001;42.25, -72.233333
LOT;Lewis Lockport;Lockport;United States;US;41.6;-88.05;67;5125011;6252001;41.6, -88.05
SQA;Santa Ynez;Santa Ynez;United States;US;13.816667;39.2;67;5393388;6252001;13.816667, 39.2
IRS;Kirsch Municipal;Sturgis;United States;US;41.8;-85.416667;67;5769489;6252001;41.8, -85.416667
PSX;Palacios;Palacios;United States;US;28.7;-96.216667;67;4717218;6252001;28.7, -96.216667
IAN;Bob Barker Memorial;Kiana;United States;US;66.983333;-160.416667;67;\N;6252001;66.983333, -160.416667
CLS;Centralia;Chehalis;United States;US;46.683333;-122.983333;67;5789817;6252001;46.683333, -122.983333
FRY;Fryeburg;Fryeburg;United States;US;44.016667;-70.983333;67;4964996;6252001;44.016667, -70.983333
ISS;Wiscasset;Wiscasset;United States;US;43.969444;-69.716667;67;4983359;6252001;43.969444, -69.716667
SDM;Brown Field Municipal;San Diego;United States;US;32.572222;-116.98;67;5391811;6252001;32.572222, -116.98
TSS;East 34th St Heliport;New York;United States;US;40.744444;-73.970833;67;5128581;6252001;40.744444, -73.970833
NBU;NAS;Glenview;United States;US;-32.683333;151.633333;67;4893886;6252001;-32.683333, 151.633333
GXY;Weld County;Greeley;United States;US;40.333333;-104.616667;67;5577592;6252001;40.333333, -104.616667
AMN;Gratiot Community;Alma;United States;US;43.383333;-84.65;67;5062898;6252001;43.383333, -84.65
UTO;Indian Mountain AFS;Utopia Creek;United States;US;65.983333;-153.683333;67;\N;6252001;65.983333, -153.683333
CPR;Natrona County International Airport;Casper, WY;United States;US;42.908056;-106.464444;67;5820705;6252001;42.908056, -106.464444
SYN;Carleton;Stanton;United States;US;44.468056;-93.0;67;5531683;6252001;44.468056, -93.0
JSK;Municipal Heliport;Saint Cloud;United States;US;18.766666999999998;-72.066667;67;5044407;6252001;18.766666999999998, -72.066667
PHL;Philadelphia International;Philadelphia;United States;US;39.871944;-75.241111;67;5131095;6252001;39.871944, -75.241111
GNV;Gainesville Regional;Gainesville;United States;US;29.683333;-82.266667;67;4760363;6252001;29.683333, -82.266667
LCK;Rickenbacker;Columbus;United States;US;40.002778;-82.883333;67;5645893;6252001;40.002778, -82.883333
IRC;Circle City;Circle;United States;US;65.833333;-144.083333;67;\N;6252001;65.833333, -144.083333
QWF;Fort Collins Bus Servi;Fort Collins/Loveland;United States;US;19.833333;-72.5;67;5577147;6252001;19.833333, -72.5
HZL;Hazleton;Hazleton;United States;US;40.983333;-76.0;67;5193011;6252001;40.983333, -76.0
UBS;Lowndes County;Columbus;United States;US;33.449722;-88.365833;67;5645893;6252001;33.449722, -88.365833
BWL;Blackwell;Blackwell;United States;US;36.8;-97.283333;67;4530866;6252001;36.8, -97.283333
SHV;Regional;Shreveport;United States;US;32.45;-93.816667;67;4341513;6252001;32.45, -93.816667
MSS;Richards Field;Massena;United States;US;44.933333;-74.85;67;5126194;6252001;44.933333, -74.85
KCR;Colorado Creek;Colorado Creek;United States;US;-17.2;129.366667;67;\N;6252001;-17.2, 129.366667
FFL;Municipal;Fairfield;United States;US;40.933333;-91.95;67;5347335;6252001;40.933333, -91.95
LNP;Wise;Wise;United States;US;36.983333;-82.566667;67;4829341;6252001;36.983333, -82.566667
ORF;Norfolk International Airport;Norfolk;United States;US;36.9;-76.2;67;5128862;6252001;36.9, -76.2
OWA;Owatonna;Owatonna;United States;US;44.116667;-93.25;67;5040647;6252001;44.116667, -93.25
PIR;Pierre;Pierre;United States;US;44.383333;-100.283333;67;5767918;6252001;44.383333, -100.283333
SCF;Scottsdale Municipal;Phoenix;United States;US;33.5;-111.933333;67;5745656;6252001;33.5, -111.933333
ESO;Espanola;Espanola;United States;US;36.1;-106.033333;67;5467024;6252001;36.1, -106.033333
FLO;Florence;Florence;United States;US;34.183333;-79.716667;67;5727032;6252001;34.183333, -79.716667
MSL;Sheffield;Sheffield;United States;US;34.75;-87.616667;67;5281031;6252001;34.75, -87.616667
JAX;Jacksonville,;Jacksonville, FL;United States;US;30.416667;-81.633333;67;5733409;6252001;30.416667, -81.633333
OLM;Olympia;Olympia;United States;US;46.966667;-122.9;67;5805687;6252001;46.966667, -122.9
MXY;Mccarthy;Mccarthy;United States;US;61.416667;-142.916667;67;\N;6252001;61.416667, -142.916667
CHK;Municipal;Chickasha;United States;US;35.033333;-97.966667;67;4533029;6252001;35.033333, -97.966667
ETS;Municipal;Enterprise;United States;US;31.316667;-85.85;67;5774535;6252001;31.316667, -85.85
NIB;Nikolai;Nikolai;United States;US;63.016667;-154.383333;67;\N;6252001;63.016667, -154.383333
CIB;Ap In The Sky;Catalina Island;United States;US;33.416389;-118.416389;67;\N;6252001;33.416389, -118.416389
PLN;Emmet County;Pellston;United States;US;45.566667;-84.8;67;\N;6252001;45.566667, -84.8
JLB;Heliport;Long Beach;United States;US;-53.2;73.483333;67;5801520;6252001;-53.2, 73.483333
SJT;Mathis Fld;San Angelo;United States;US;31.357778;-100.496389;67;5530022;6252001;31.357778, -100.496389
MRC;Maury County;Columbia;United States;US;-10.75;-67.866667;67;5338800;6252001;-10.75, -67.866667
AUZ;Municipal Airport;Aurora;United States;US;41.766667;-88.316667;67;5412347;6252001;41.766667, -88.316667
ARA;Acadiana Regional;New Iberia;United States;US;80.133333;32.583333;67;4334971;6252001;80.133333, 32.583333
AOH;Allen County;Lima;United States;US;40.716667;-84.033333;67;5160783;6252001;40.716667, -84.033333
JDT;Downtown Heliport;Minneapolis;United States;US;8.316667;40.033333;67;5037649;6252001;8.316667, 40.033333
CAR;Municipal;Caribou;United States;US;46.866667;-68.016667;67;4960140;6252001;46.866667, -68.016667
PTH;Port Heiden;Port Heiden;United States;US;56.966667;-158.633333;67;\N;6252001;56.966667, -158.633333
MHR;Sacramento Mather Airport;Sacramento, CA;United States;US;38.555278;-121.297222;67;5389489;6252001;38.555278, -121.297222
EWN;Simmons Nott;New Bern;United States;US;35.066667;-77.05;67;4481682;6252001;35.066667, -77.05
PIM;Garden Harris County;Pine Mountain;United States;US;32.833333;-84.85;67;4216049;6252001;32.833333, -84.85
CCY;Municipal;Charles City;United States;US;43.066667;-92.666667;67;4851163;6252001;43.066667, -92.666667
INT;Smith-Reynolds;Winston Salem;United States;US;36.133333;-80.219444;67;\N;6252001;36.133333, -80.219444
ENV;Wendover;Wendover;United States;US;40.733333;-114.033333;67;5784492;6252001;40.733333, -114.033333
JRE;East 60th Street H/P;New York;United States;US;40.8;-73.966667;67;5128581;6252001;40.8, -73.966667
SHH;Shishmaref;Shishmaref;United States;US;66.25;-166.05;67;\N;6252001;66.25, -166.05
LSD;Blue Grass Station Army Heliport;Lexington, KY;United States;US;38.083333;-84.316667;67;5160635;6252001;38.083333, -84.316667
CDC;Cedar City;Cedar City;United States;US;37.7;-113.1;67;5536630;6252001;37.7, -113.1
NNK;Naknek;Naknek;United States;US;58.75;-156.533333;67;\N;6252001;58.75, -156.533333
BTR;Ryan;Baton Rouge;United States;US;30.533333;-91.15;67;4315588;6252001;30.533333, -91.15
FRR;Front Royal-Warren County;Front Royal,;United States;US;38.9175;-78.253611;67;4760232;6252001;38.9175, -78.253611
JCY;Johnson;Johnson;United States;US;32.333333;-97.333333;67;5445688;6252001;32.333333, -97.333333
DTL;Municipal;Detroit Lakes;United States;US;46.833333;-95.883333;67;5024237;6252001;46.833333, -95.883333
AED;Aleneva;Aleneva;United States;US;-0.6000000000000001;10.083333;67;\N;6252001;-0.6000000000000001, 10.083333
BIS;Bismarck;Bismarck;United States;US;46.783333;-100.75;67;5688025;6252001;46.783333, -100.75
EFD;Ellington Field;Houston;United States;US;29.602778;-95.152778;67;5864312;6252001;29.602778, -95.152778
LAM;Los Alamos;Los Alamos;United States;US;35.883333;-106.316667;67;5476825;6252001;35.883333, -106.316667
HLM;Park Township;Holland;United States;US;42.783333;-86.116667;67;5157759;6252001;42.783333, -86.116667
ANW;Ainsworth;Ainsworth;United States;US;42.583333;-99.983333;67;5062769;6252001;42.583333, -99.983333
CNO;Chino;Chino;United States;US;34.016667;-117.7;67;5336537;6252001;34.016667, -117.7
JDB;Downtown Heliport;Dallas;United States;US;32.766667;-97.316667;67;5722064;6252001;32.766667, -97.316667
SWF;Stewart;Newburgh;United States;US;41.5;-74.016667;67;5128654;6252001;41.5, -74.016667
TVC;Cherry Capital Airport;Traverse City;United States;US;44.741389;-85.582222;67;5012495;6252001;44.741389, -85.582222
CIU;Chippewa County;Sault Ste Marie;United States;US;46.25;-84.466667;67;\N;6252001;46.25, -84.466667
HSH;Henderson Sky Harbor;Las Vegas;United States;US;35.968333;-115.119167;67;5506956;6252001;35.968333, -115.119167
GKT;Gatlinburg;Gatlinburg;United States;US;31.353611;-84.375;67;4624443;6252001;31.353611, -84.375
HOL;Holikachu;Holikachu;United States;US;62.9;-159.516667;67;\N;6252001;62.9, -159.516667
LOR;Lowe Army Heliport;Ozark;United States;US;53.116667;22.45;67;4402245;6252001;53.116667, 22.45
ECS;Mondell;Newcastle;United States;US;43.883333;-104.316667;67;5833349;6252001;43.883333, -104.316667
RKC;Yreka;Yreka;United States;US;41.733333;-122.633333;67;5574093;6252001;41.733333, -122.633333
GFA;Malmstrom AFB;Great Falls;United States;US;27.083333;-77.0;67;5655240;6252001;27.083333, -77.0
APG;Phillips AAF;Aberdeen;United States;US;52.316667;-1.283333;67;5785243;6252001;52.316667, -1.283333
HMT;Ryan Field;Hemet;United States;US;33.75;-116.966667;67;5356277;6252001;33.75, -116.966667
TDW;Tradewind;Amarillo;United States;US;35.166667;-101.833333;67;5516233;6252001;35.166667, -101.833333
UOX;University-Oxford;Oxford;United States;US;34.383333;-89.533333;67;5130319;6252001;34.383333, -89.533333
UCE;Eunice;Eunice;United States;US;30.5;-92.416667;67;5467187;6252001;30.5, -92.416667
